{"type":"FeatureCollection", "features": [
{"type":"Feature","geometry":{"type":"Point","coordinates":[115.49456435445974,39.65842085503067]},"properties":{"NAME":"大沙地","PINYIN":"Dashadi","CLASS":"BB","GNID":"110111000000","XZNAME":"","ORIG_FID":1292}},
{"type":"Feature","geometry":{"type":"Point","coordinates":[115.49780171764145,39.70799028436423]},"properties":{"NAME":"森水村","PINYIN":"Senshuicun","CLASS":"AK","GNID":"110111213206","XZNAME":"蒲洼乡","ORIG_FID":1359}},
{"type":"Feature","geometry":{"type":"Point","coordinates":[115.43851158958111,39.77615443435143]},"properties":{"NAME":"鱼斗泉村","PINYIN":"Yudouquancun","CLASS":"AK","GNID":"110111213200","XZNAME":"蒲洼乡","ORIG_FID":1480}},
{"type":"Feature","geometry":{"type":"Point","coordinates":[115.47170608407967,39.7791619502514]},"properties":{"NAME":"芦子水村","PINYIN":"Luzishuicun","CLASS":"AK","GNID":"110111213201","XZNAME":"蒲洼乡","ORIG_FID":1485}},
{"type":"Feature","geometry":{"type":"Point","coordinates":[115.4813064062068,39.95041801778872]},"properties":{"NAME":"胜利村","PINYIN":"Shenglicun","CLASS":"AK","GNID":"110109107229","XZNAME":"清水镇","ORIG_FID":1777}},
{"type":"Feature","geometry":{"type":"Point","coordinates":[115.48283543092403,39.95921394902969]},"properties":{"NAME":"双塘涧村","PINYIN":"Shuangtangjiancun","CLASS":"AK","GNID":"110109107227","XZNAME":"清水镇","ORIG_FID":1796}},
{"type":"Feature","geometry":{"type":"Point","coordinates":[115.43516194494524,39.96495970152267]},"properties":{"NAME":"小龙门林场","PINYIN":"Xiaolongmen Linchang","CLASS":"CC","GNID":"110109000000","XZNAME":"","ORIG_FID":1802}},
{"type":"Feature","geometry":{"type":"Point","coordinates":[115.46641384720978,39.966091988279565]},"properties":{"NAME":"小龙门村","PINYIN":"Xiaolongmencun","CLASS":"AK","GNID":"110109107230","XZNAME":"清水镇","ORIG_FID":1805}},
{"type":"Feature","geometry":{"type":"Point","coordinates":[115.47983099670554,39.99151380577582]},"properties":{"NAME":"洪水口村","PINYIN":"Hongshuikoucun","CLASS":"AK","GNID":"110109107231","XZNAME":"清水镇","ORIG_FID":1851}},
{"type":"Feature","geometry":{"type":"Point","coordinates":[116.40912953956558,39.45268667223374]},"properties":{"NAME":"石佛寺村","PINYIN":"Shifosicun","CLASS":"AK","GNID":"110115107255","XZNAME":"榆垡镇","ORIG_FID":1543}},
{"type":"Feature","geometry":{"type":"Point","coordinates":[116.43308298058906,39.45520343548701]},"properties":{"NAME":"崔指挥营村","PINYIN":"Cuizhihuiyingcun","CLASS":"AK","GNID":"110115107257","XZNAME":"榆垡镇","ORIG_FID":1550}},
{"type":"Feature","geometry":{"type":"Point","coordinates":[116.37548938917324,39.4605463313619]},"properties":{"NAME":"西押堤村","PINYIN":"Xiyidicun","CLASS":"AK","GNID":"110115107253","XZNAME":"榆垡镇","ORIG_FID":1566}},
{"type":"Feature","geometry":{"type":"Point","coordinates":[116.42439565840976,39.4610141153219]},"properties":{"NAME":"辛村","PINYIN":"Xincun","CLASS":"AK","GNID":"110115107251","XZNAME":"榆垡镇","ORIG_FID":1568}},
{"type":"Feature","geometry":{"type":"Point","coordinates":[116.32745300599852,39.46716222200495]},"properties":{"NAME":"辛安庄村","PINYIN":"Xin'anzhuangcun","CLASS":"AK","GNID":"110115107246","XZNAME":"榆垡镇","ORIG_FID":1583}},
{"type":"Feature","geometry":{"type":"Point","coordinates":[116.41513757418153,39.468238756242705]},"properties":{"NAME":"曹各庄村","PINYIN":"Caogezhuangcun","CLASS":"AK","GNID":"110115107250","XZNAME":"榆垡镇","ORIG_FID":1588}},
{"type":"Feature","geometry":{"type":"Point","coordinates":[116.33910436810626,39.47101349731703]},"properties":{"NAME":"南张华村","PINYIN":"Nanzhanghuacun","CLASS":"AK","GNID":"110115107236","XZNAME":"榆垡镇","ORIG_FID":1594}},
{"type":"Feature","geometry":{"type":"Point","coordinates":[116.43245603891157,39.47150440384367]},"properties":{"NAME":"南化各庄村","PINYIN":"Nanhuagezhuangcun","CLASS":"AK","GNID":"110115107245","XZNAME":"榆垡镇","ORIG_FID":1598}},
{"type":"Feature","geometry":{"type":"Point","coordinates":[116.31690413686775,39.47685370094343]},"properties":{"NAME":"十里铺村","PINYIN":"Shilipucun","CLASS":"AK","GNID":"110115107227","XZNAME":"榆垡镇","ORIG_FID":1616}},
{"type":"Feature","geometry":{"type":"Point","coordinates":[116.37732992225973,39.477143968272]},"properties":{"NAME":"南黑垡村","PINYIN":"Nanheifacun","CLASS":"AK","GNID":"110115107239","XZNAME":"榆垡镇","ORIG_FID":1618}},
{"type":"Feature","geometry":{"type":"Point","coordinates":[116.35268276212511,39.4793241012403]},"properties":{"NAME":"东张华村","PINYIN":"Dongzhanghuacun","CLASS":"AK","GNID":"110115107235","XZNAME":"榆垡镇","ORIG_FID":1623}},
{"type":"Feature","geometry":{"type":"Point","coordinates":[116.39939581070844,39.47936766906724]},"properties":{"NAME":"郭家务村","PINYIN":"Guojiawucun","CLASS":"AK","GNID":"110115107241","XZNAME":"榆垡镇","ORIG_FID":1624}},
{"type":"Feature","geometry":{"type":"Point","coordinates":[116.34499831237135,39.48096430483564]},"properties":{"NAME":"西张华村","PINYIN":"Xizhanghuacun","CLASS":"AK","GNID":"110115107234","XZNAME":"榆垡镇","ORIG_FID":1629}},
{"type":"Feature","geometry":{"type":"Point","coordinates":[116.36615404804112,39.49382133423694]},"properties":{"NAME":"朱家务村","PINYIN":"Zhujiawucun","CLASS":"AK","GNID":"110115107231","XZNAME":"榆垡镇","ORIG_FID":1676}},
{"type":"Feature","geometry":{"type":"Point","coordinates":[116.39407096902183,39.494024109946224]},"properties":{"NAME":"南庄村","PINYIN":"Nanzhuangcun","CLASS":"AK","GNID":"110115107232","XZNAME":"榆垡镇","ORIG_FID":1677}},
{"type":"Feature","geometry":{"type":"Point","coordinates":[116.30248190362055,39.49491557236087]},"properties":{"NAME":"西胡林村","PINYIN":"Xihulincun","CLASS":"AK","GNID":"110115107224","XZNAME":"榆垡镇","ORIG_FID":1683}},
{"type":"Feature","geometry":{"type":"Point","coordinates":[116.35176027912011,39.49761776294052]},"properties":{"NAME":"张家务村","PINYIN":"Zhangjiawucun","CLASS":"AK","GNID":"110115107226","XZNAME":"榆垡镇","ORIG_FID":1691}},
{"type":"Feature","geometry":{"type":"Point","coordinates":[116.40228845956221,39.499769617691086]},"properties":{"NAME":"东宋各庄村","PINYIN":"Dongsonggezhuangcun","CLASS":"AK","GNID":"110115107230","XZNAME":"榆垡镇","ORIG_FID":1703}},
{"type":"Feature","geometry":{"type":"Point","coordinates":[116.39215759881546,39.50648649086013]},"properties":{"NAME":"南各庄村","PINYIN":"Nangezhuangcun","CLASS":"AK","GNID":"110115107228","XZNAME":"榆垡镇","ORIG_FID":1726}},
{"type":"Feature","geometry":{"type":"Point","coordinates":[116.27968189960582,39.507542470322136]},"properties":{"NAME":"求贤村","PINYIN":"Qiuxiancun","CLASS":"AK","GNID":"110115107220","XZNAME":"榆垡镇","ORIG_FID":1730}},
{"type":"Feature","geometry":{"type":"Point","coordinates":[116.36647331486816,39.50778774077018]},"properties":{"NAME":"东庄营村","PINYIN":"Dongzhuangyingcun","CLASS":"AK","GNID":"110115107222","XZNAME":"榆垡镇","ORIG_FID":1731}},
{"type":"Feature","geometry":{"type":"Point","coordinates":[116.33588904165175,39.50937614521477]},"properties":{"NAME":"太子务村","PINYIN":"Taiziwucun","CLASS":"AK","GNID":"110115107221","XZNAME":"榆垡镇","ORIG_FID":1735}},
{"type":"Feature","geometry":{"type":"Point","coordinates":[116.30970409091623,39.5137081354096]},"properties":{"NAME":"榆垡镇","PINYIN":"Yufa Zhen","CLASS":"AI","GNID":"110115107000","XZNAME":"","ORIG_FID":1746}},
{"type":"Feature","geometry":{"type":"Point","coordinates":[116.27177242770945,39.51912420991502]},"properties":{"NAME":"大练庄村","PINYIN":"Dalianzhuangcun","CLASS":"AK","GNID":"110115107217","XZNAME":"榆垡镇","ORIG_FID":1763}},
{"type":"Feature","geometry":{"type":"Point","coordinates":[116.42463255745211,39.51964667097663]},"properties":{"NAME":"大马坊村","PINYIN":"Damafangcun","CLASS":"AK","GNID":"110115106225","XZNAME":"礼贤镇","ORIG_FID":1766}},
{"type":"Feature","geometry":{"type":"Point","coordinates":[116.28571171177308,39.52064840262173]},"properties":{"NAME":"黄各庄村","PINYIN":"Huanggezhuangcun","CLASS":"AK","GNID":"110115107218","XZNAME":"榆垡镇","ORIG_FID":1770}},
{"type":"Feature","geometry":{"type":"Point","coordinates":[116.36014210954629,39.526084544311416]},"properties":{"NAME":"东梁各庄村","PINYIN":"Donglianggezhuangcun","CLASS":"AK","GNID":"110115106243","XZNAME":"礼贤镇","ORIG_FID":1785}},
{"type":"Feature","geometry":{"type":"Point","coordinates":[115.75133046048686,39.529107839112946]},"properties":{"NAME":"镇江营村","PINYIN":"Zhenjiangyingcun","CLASS":"AK","GNID":"110111109205","XZNAME":"大石窝镇","ORIG_FID":1795}},
{"type":"Feature","geometry":{"type":"Point","coordinates":[115.8072797098336,39.53308279284196]},"properties":{"NAME":"广润庄村","PINYIN":"Guangrunzhuangcun","CLASS":"AK","GNID":"110111109211","XZNAME":"大石窝镇","ORIG_FID":1805}},
{"type":"Feature","geometry":{"type":"Point","coordinates":[116.30807937705535,39.53438248853054]},"properties":{"NAME":"西瓮各庄村","PINYIN":"Xiwenggezhuangcun","CLASS":"AK","GNID":"110115107211","XZNAME":"榆垡镇","ORIG_FID":1811}},
{"type":"Feature","geometry":{"type":"Point","coordinates":[116.42646150105159,39.53800698430463]},"properties":{"NAME":"李各庄村","PINYIN":"Ligezhuangcun","CLASS":"AK","GNID":"110115106220","XZNAME":"礼贤镇","ORIG_FID":1820}},
{"type":"Feature","geometry":{"type":"Point","coordinates":[116.41118593806951,39.539325877411095]},"properties":{"NAME":"祁各庄村","PINYIN":"Qigezhuangcun","CLASS":"AK","GNID":"110115106219","XZNAME":"礼贤镇","ORIG_FID":1824}},
{"type":"Feature","geometry":{"type":"Point","coordinates":[115.73656170403068,39.54030179172197]},"properties":{"NAME":"下滩村","PINYIN":"Xiatancun","CLASS":"AK","GNID":"110111109202","XZNAME":"大石窝镇","ORIG_FID":1829}},
{"type":"Feature","geometry":{"type":"Point","coordinates":[116.39273837951818,39.540684942399906]},"properties":{"NAME":"西里河村","PINYIN":"Xilihecun","CLASS":"AK","GNID":"110115106218","XZNAME":"礼贤镇","ORIG_FID":1832}},
{"type":"Feature","geometry":{"type":"Point","coordinates":[116.46144875296271,39.54173612140171]},"properties":{"NAME":"王化庄村","PINYIN":"Wanghuazhuangcun","CLASS":"AK","GNID":"110115106223","XZNAME":"礼贤镇","ORIG_FID":1837}},
{"type":"Feature","geometry":{"type":"Point","coordinates":[115.78378978473458,39.54497160482396]},"properties":{"NAME":"北尚乐村","PINYIN":"Beishanglecun","CLASS":"AK","GNID":"110111109208","XZNAME":"大石窝镇","ORIG_FID":1850}},
{"type":"Feature","geometry":{"type":"Point","coordinates":[116.3714559718215,39.54953955251002]},"properties":{"NAME":"东郏河村","PINYIN":"Dongjiahecun","CLASS":"AK","GNID":"110115106239","XZNAME":"礼贤镇","ORIG_FID":1863}},
{"type":"Feature","geometry":{"type":"Point","coordinates":[116.33843448295339,39.54974809340728]},"properties":{"NAME":"中心村","PINYIN":"Zhongxincun","CLASS":"AK","GNID":"110115106235","XZNAME":"礼贤镇","ORIG_FID":1866}},
{"type":"Feature","geometry":{"type":"Point","coordinates":[115.72437572727767,39.550137704071986]},"properties":{"NAME":"蔡庄村","PINYIN":"Caizhuangcun","CLASS":"AK","GNID":"110111109201","XZNAME":"大石窝镇","ORIG_FID":1867}},
{"type":"Feature","geometry":{"type":"Point","coordinates":[115.79685393086429,39.55133608029993]},"properties":{"NAME":"辛庄村","PINYIN":"Xinzhuangcun","CLASS":"AK","GNID":"110111109212","XZNAME":"大石窝镇","ORIG_FID":1869}},
{"type":"Feature","geometry":{"type":"Point","coordinates":[115.820096032726,39.55290364699265]},"properties":{"NAME":"大石窝镇","PINYIN":"Dashiwo Zhen","CLASS":"AI","GNID":"110111109000","XZNAME":"","ORIG_FID":1874}},
{"type":"Feature","geometry":{"type":"Point","coordinates":[116.27615153145264,39.55296764535703]},"properties":{"NAME":"履磕村","PINYIN":"Lükecun","CLASS":"AK","GNID":"110115107204","XZNAME":"榆垡镇","ORIG_FID":1875}},
{"type":"Feature","geometry":{"type":"Point","coordinates":[115.83600641036242,39.55394040018723]},"properties":{"NAME":"半壁店村","PINYIN":"Banbidiancun","CLASS":"AK","GNID":"110111109214","XZNAME":"大石窝镇","ORIG_FID":1881}},
{"type":"Feature","geometry":{"type":"Point","coordinates":[116.43021765809628,39.555895760989394]},"properties":{"NAME":"礼贤镇","PINYIN":"Lixian Zhen","CLASS":"AI","GNID":"110115106000","XZNAME":"","ORIG_FID":1887}},
{"type":"Feature","geometry":{"type":"Point","coordinates":[116.38045141695505,39.555926262048494]},"properties":{"NAME":"前杨各庄村","PINYIN":"Qianyanggezhuangcun","CLASS":"AK","GNID":"110115106232","XZNAME":"礼贤镇","ORIG_FID":1888}},
{"type":"Feature","geometry":{"type":"Point","coordinates":[116.29222061531812,39.55635755328411]},"properties":{"NAME":"留士庄村","PINYIN":"Liushizhuangcun","CLASS":"AK","GNID":"110115107202","XZNAME":"榆垡镇","ORIG_FID":1889}},
{"type":"Feature","geometry":{"type":"Point","coordinates":[115.87579579836249,39.556984431419025]},"properties":{"NAME":"南良各庄村","PINYIN":"Nanlianggezhuangcun","CLASS":"AK","GNID":"110111108203","XZNAME":"长沟镇","ORIG_FID":1890}},
{"type":"Feature","geometry":{"type":"Point","coordinates":[116.41924675748389,39.55905079120053]},"properties":{"NAME":"小马坊村","PINYIN":"Xiaomafangcun","CLASS":"AK","GNID":"110115106213","XZNAME":"礼贤镇","ORIG_FID":1897}},
{"type":"Feature","geometry":{"type":"Point","coordinates":[115.81155601880124,39.55942505391681]},"properties":{"NAME":"石窝村","PINYIN":"Shiwocun","CLASS":"AK","GNID":"110111109213","XZNAME":"大石窝镇","ORIG_FID":1898}},
{"type":"Feature","geometry":{"type":"Point","coordinates":[116.41014600883558,39.55958588827269]},"properties":{"NAME":"紫各庄村","PINYIN":"Zigezhuangcun","CLASS":"AK","GNID":"110115106212","XZNAME":"礼贤镇","ORIG_FID":1900}},
{"type":"Feature","geometry":{"type":"Point","coordinates":[115.87961119578654,39.5600956150207]},"properties":{"NAME":"北良各庄村","PINYIN":"Beilianggezhuangcun","CLASS":"AK","GNID":"110111108204","XZNAME":"长沟镇","ORIG_FID":1903}},
{"type":"Feature","geometry":{"type":"Point","coordinates":[116.49297192537307,39.56018608904613]},"properties":{"NAME":"田家营村","PINYIN":"Tianjiayingcun","CLASS":"AK","GNID":"110115106217","XZNAME":"礼贤镇","ORIG_FID":1904}},
{"type":"Feature","geometry":{"type":"Point","coordinates":[115.75578350344898,39.56092796439847]},"properties":{"NAME":"广录庄村","PINYIN":"Guangluzhuangcun","CLASS":"AK","GNID":"110111110208","XZNAME":"张坊镇","ORIG_FID":1906}},
{"type":"Feature","geometry":{"type":"Point","coordinates":[116.47176439983097,39.56261545650612]},"properties":{"NAME":"内官庄村","PINYIN":"Neiguanzhuangcun","CLASS":"AK","GNID":"110115106208","XZNAME":"礼贤镇","ORIG_FID":1910}},
{"type":"Feature","geometry":{"type":"Point","coordinates":[115.84789460487985,39.56280530979922]},"properties":{"NAME":"南正村","PINYIN":"Nanzhengcun","CLASS":"AK","GNID":"110111108200","XZNAME":"长沟镇","ORIG_FID":1911}},
{"type":"Feature","geometry":{"type":"Point","coordinates":[116.25277800379307,39.56445189334836]},"properties":{"NAME":"石垡村","PINYIN":"Shifacun","CLASS":"AK","GNID":"110115107200","XZNAME":"榆垡镇","ORIG_FID":1914}},
{"type":"Feature","geometry":{"type":"Point","coordinates":[116.31254979420702,39.565266139173886]},"properties":{"NAME":"西黄垡村","PINYIN":"Xihuangfacun","CLASS":"AK","GNID":"110115107201","XZNAME":"榆垡镇","ORIG_FID":1916}},
{"type":"Feature","geometry":{"type":"Point","coordinates":[115.80982095381442,39.56550195447646]},"properties":{"NAME":"下营村","PINYIN":"Xiayingcun","CLASS":"AK","GNID":"110111109217","XZNAME":"大石窝镇","ORIG_FID":1918}},
{"type":"Feature","geometry":{"type":"Point","coordinates":[116.47899602820222,39.56563155748656]},"properties":{"NAME":"佃子村","PINYIN":"Dianzicun","CLASS":"AK","GNID":"110115106209","XZNAME":"礼贤镇","ORIG_FID":1919}},
{"type":"Feature","geometry":{"type":"Point","coordinates":[115.74008516206082,39.56606751460674]},"properties":{"NAME":"南白岱村","PINYIN":"Nanbaidaicun","CLASS":"AK","GNID":"110111110209","XZNAME":"张坊镇","ORIG_FID":1920}},
{"type":"Feature","geometry":{"type":"Point","coordinates":[115.8626037848108,39.566459708750486]},"properties":{"NAME":"北正村","PINYIN":"Beizhengcun","CLASS":"AK","GNID":"110111108201","XZNAME":"长沟镇","ORIG_FID":1922}},
{"type":"Feature","geometry":{"type":"Point","coordinates":[116.35971645778221,39.56762482651915]},"properties":{"NAME":"贺北村","PINYIN":"Hebeicun","CLASS":"AK","GNID":"110115106227","XZNAME":"礼贤镇","ORIG_FID":1924}},
{"type":"Feature","geometry":{"type":"Point","coordinates":[116.43348046142951,39.56765487013128]},"properties":{"NAME":"伍各庄村","PINYIN":"Wugezhuangcun","CLASS":"AK","GNID":"110115106207","XZNAME":"礼贤镇","ORIG_FID":1925}},
{"type":"Feature","geometry":{"type":"Point","coordinates":[115.73141345555524,39.5678278756507]},"properties":{"NAME":"西白岱村","PINYIN":"Xibaidaicun","CLASS":"AK","GNID":"110111110210","XZNAME":"张坊镇","ORIG_FID":1926}},
{"type":"Feature","geometry":{"type":"Point","coordinates":[115.82243900212359,39.56806774980253]},"properties":{"NAME":"独树村","PINYIN":"Dushucun","CLASS":"AK","GNID":"110111109215","XZNAME":"大石窝镇","ORIG_FID":1928}},
{"type":"Feature","geometry":{"type":"Point","coordinates":[116.3855003431459,39.56835249483293]},"properties":{"NAME":"东白疃村","PINYIN":"Dongbaituancun","CLASS":"AK","GNID":"110115106229","XZNAME":"礼贤镇","ORIG_FID":1929}},
{"type":"Feature","geometry":{"type":"Point","coordinates":[115.70411607796598,39.571178365738916]},"properties":{"NAME":"张坊村","PINYIN":"Zhangfangcun","CLASS":"AK","GNID":"110111110212","XZNAME":"张坊镇","ORIG_FID":1936}},
{"type":"Feature","geometry":{"type":"Point","coordinates":[115.80671630311731,39.57137603560339]},"properties":{"NAME":"高庄村","PINYIN":"Gaozhuangcun","CLASS":"AK","GNID":"110111109218","XZNAME":"大石窝镇","ORIG_FID":1939}},
{"type":"Feature","geometry":{"type":"Point","coordinates":[115.89550977206807,39.57158842665658]},"properties":{"NAME":"西长沟村","PINYIN":"Xichanggoucun","CLASS":"AK","GNID":"110111108207","XZNAME":"长沟镇","ORIG_FID":1942}},
{"type":"Feature","geometry":{"type":"Point","coordinates":[115.87874383217866,39.574485756035045]},"properties":{"NAME":"坟庄村","PINYIN":"Fenzhuangcun","CLASS":"AK","GNID":"110111108210","XZNAME":"长沟镇","ORIG_FID":1951}},
{"type":"Feature","geometry":{"type":"Point","coordinates":[116.41297048853363,39.57555986779617]},"properties":{"NAME":"西段家务村","PINYIN":"Xiduanjiawucun","CLASS":"AK","GNID":"110115106202","XZNAME":"礼贤镇","ORIG_FID":1957}},
{"type":"Feature","geometry":{"type":"Point","coordinates":[116.02573161004214,39.576065374426065]},"properties":{"NAME":"福兴村","PINYIN":"Fuxingcun","CLASS":"AK","GNID":"110111118000","XZNAME":"琉璃河镇(地区)","ORIG_FID":1958}},
{"type":"Feature","geometry":{"type":"Point","coordinates":[116.41821924918142,39.57615818524163]},"properties":{"NAME":"东段家务村","PINYIN":"Dongduanjiawucun","CLASS":"AK","GNID":"110115106203","XZNAME":"礼贤镇","ORIG_FID":1960}},
{"type":"Feature","geometry":{"type":"Point","coordinates":[115.71073352202386,39.57638801314412]},"properties":{"NAME":"张坊镇","PINYIN":"Zhangfang Zhen","CLASS":"AI","GNID":"110111110000","XZNAME":"","ORIG_FID":1961}},
{"type":"Feature","geometry":{"type":"Point","coordinates":[116.12304934084653,39.57673179796304]},"properties":{"NAME":"南白村","PINYIN":"Nanbaicun","CLASS":"AK","GNID":"110111118000","XZNAME":"琉璃河镇(地区)","ORIG_FID":1962}},
{"type":"Feature","geometry":{"type":"Point","coordinates":[115.89802939615387,39.57682470997588]},"properties":{"NAME":"太和庄村","PINYIN":"Taihezhuangcun","CLASS":"AK","GNID":"110111108208","XZNAME":"长沟镇","ORIG_FID":1963}},
{"type":"Feature","geometry":{"type":"Point","coordinates":[116.44220296706354,39.57685844472314]},"properties":{"NAME":"平地村","PINYIN":"Pingdicun","CLASS":"AK","GNID":"110115106204","XZNAME":"礼贤镇","ORIG_FID":1964}},
{"type":"Feature","geometry":{"type":"Point","coordinates":[115.74028582951485,39.576864263513485]},"properties":{"NAME":"北白岱村","PINYIN":"Beibaidaicun","CLASS":"AK","GNID":"110111110201","XZNAME":"张坊镇","ORIG_FID":1965}},
{"type":"Feature","geometry":{"type":"Point","coordinates":[116.13044748403243,39.57701376560597]},"properties":{"NAME":"薛庄村","PINYIN":"Xuezhuangcun","CLASS":"AK","GNID":"110111118000","XZNAME":"琉璃河镇(地区)","ORIG_FID":1967}},
{"type":"Feature","geometry":{"type":"Point","coordinates":[116.25545429719081,39.57727559872959]},"properties":{"NAME":"前曹各庄村","PINYIN":"Qiancaogezhuangcun","CLASS":"AK","GNID":"110115108249","XZNAME":"庞各庄镇","ORIG_FID":1969}},
{"type":"Feature","geometry":{"type":"Point","coordinates":[116.46335013041818,39.57774597215327]},"properties":{"NAME":"河北头村","PINYIN":"Hebeitoucun","CLASS":"AK","GNID":"110115106205","XZNAME":"礼贤镇","ORIG_FID":1971}},
{"type":"Feature","geometry":{"type":"Point","coordinates":[116.20551045880893,39.578535814396076]},"properties":{"NAME":"韩营村","PINYIN":"Hanyingcun","CLASS":"AK","GNID":"110111118000","XZNAME":"琉璃河镇(地区)","ORIG_FID":1972}},
{"type":"Feature","geometry":{"type":"Point","coordinates":[116.49921762235701,39.57863958280683]},"properties":{"NAME":"小刘各庄村","PINYIN":"Xiaoliugezhuangcun","CLASS":"AK","GNID":"110115106206","XZNAME":"礼贤镇","ORIG_FID":1973}},
{"type":"Feature","geometry":{"type":"Point","coordinates":[115.89444886050873,39.57973834042896]},"properties":{"NAME":"长沟镇","PINYIN":"Changgou Zhen","CLASS":"AI","GNID":"110111108000","XZNAME":"","ORIG_FID":1975}},
{"type":"Feature","geometry":{"type":"Point","coordinates":[116.40426295485464,39.579757745210124]},"properties":{"NAME":"王庄村","PINYIN":"Wangzhuangcun","CLASS":"AK","GNID":"110115106201","XZNAME":"礼贤镇","ORIG_FID":1976}},
{"type":"Feature","geometry":{"type":"Point","coordinates":[116.30108785337083,39.579924283107815]},"properties":{"NAME":"西黑垡村","PINYIN":"Xiheifacun","CLASS":"AK","GNID":"110115108246","XZNAME":"庞各庄镇","ORIG_FID":1977}},
{"type":"Feature","geometry":{"type":"Point","coordinates":[116.27766319710449,39.57992581160737]},"properties":{"NAME":"常各庄村","PINYIN":"Changgezhuangcun","CLASS":"AK","GNID":"110115108247","XZNAME":"庞各庄镇","ORIG_FID":1978}},
{"type":"Feature","geometry":{"type":"Point","coordinates":[116.04665106124865,39.58057640363544]},"properties":{"NAME":"南洛村","PINYIN":"Nanluocun","CLASS":"AK","GNID":"110111118000","XZNAME":"琉璃河镇(地区)","ORIG_FID":1980}},
{"type":"Feature","geometry":{"type":"Point","coordinates":[116.13996829549662,39.581040897939175]},"properties":{"NAME":"八间房村","PINYIN":"Bajianfangcun","CLASS":"AK","GNID":"110111118000","XZNAME":"琉璃河镇(地区)","ORIG_FID":1982}},
{"type":"Feature","geometry":{"type":"Point","coordinates":[116.07650569213918,39.581456696017185]},"properties":{"NAME":"祖村村","PINYIN":"Zucuncun","CLASS":"AK","GNID":"110111118000","XZNAME":"琉璃河镇(地区)","ORIG_FID":1983}},
{"type":"Feature","geometry":{"type":"Point","coordinates":[115.69684615146562,39.58164350375348]},"properties":{"NAME":"片上村","PINYIN":"Pianshangcun","CLASS":"AK","GNID":"110111110213","XZNAME":"张坊镇","ORIG_FID":1984}},
{"type":"Feature","geometry":{"type":"Point","coordinates":[116.10405941125559,39.58216986480947]},"properties":{"NAME":"路村村","PINYIN":"Lucuncun","CLASS":"AK","GNID":"110111118000","XZNAME":"琉璃河镇(地区)","ORIG_FID":1985}},
{"type":"Feature","geometry":{"type":"Point","coordinates":[116.02603501420695,39.582503827532825]},"properties":{"NAME":"周庄村","PINYIN":"Zhouzhuangcun","CLASS":"AK","GNID":"110111118000","XZNAME":"琉璃河镇(地区)","ORIG_FID":1986}},
{"type":"Feature","geometry":{"type":"Point","coordinates":[116.00190762362784,39.58319561939021]},"properties":{"NAME":"白庄村","PINYIN":"Baizhuangcun","CLASS":"AK","GNID":"110111118000","XZNAME":"琉璃河镇(地区)","ORIG_FID":1987}},
{"type":"Feature","geometry":{"type":"Point","coordinates":[115.94723549137086,39.58360689190537]},"properties":{"NAME":"曹章村","PINYIN":"Caozhangcun","CLASS":"AK","GNID":"110111115206","XZNAME":"韩村河镇","ORIG_FID":1989}},
{"type":"Feature","geometry":{"type":"Point","coordinates":[116.48426940286389,39.583698852562414]},"properties":{"NAME":"大渠村","PINYIN":"Daqucun","CLASS":"AK","GNID":"110115105231","XZNAME":"安定镇","ORIG_FID":1990}},
{"type":"Feature","geometry":{"type":"Point","coordinates":[115.80498629017728,39.58575954145367]},"properties":{"NAME":"后石门村","PINYIN":"Houshimencun","CLASS":"AK","GNID":"110111109220","XZNAME":"大石窝镇","ORIG_FID":1994}},
{"type":"Feature","geometry":{"type":"Point","coordinates":[116.11675640398862,39.586203236443225]},"properties":{"NAME":"北白村","PINYIN":"Beibaicun","CLASS":"AK","GNID":"110111118000","XZNAME":"琉璃河镇(地区)","ORIG_FID":1996}},
{"type":"Feature","geometry":{"type":"Point","coordinates":[115.98663159157742,39.58702601222646]},"properties":{"NAME":"杨户屯村","PINYIN":"Yanghutuncun","CLASS":"AK","GNID":"110111118000","XZNAME":"琉璃河镇(地区)","ORIG_FID":2000}},
{"type":"Feature","geometry":{"type":"Point","coordinates":[116.38386254663727,39.58716358489936]},"properties":{"NAME":"加录垡村","PINYIN":"Jialufacun","CLASS":"AK","GNID":"110115108226","XZNAME":"庞各庄镇","ORIG_FID":2001}},
{"type":"Feature","geometry":{"type":"Point","coordinates":[116.34650577625315,39.58772845619639]},"properties":{"NAME":"西梨园村","PINYIN":"Xiliyuancun","CLASS":"AK","GNID":"110115108222","XZNAME":"庞各庄镇","ORIG_FID":2002}},
{"type":"Feature","geometry":{"type":"Point","coordinates":[116.31177827227268,39.58815559624772]},"properties":{"NAME":"东黑垡村","PINYIN":"Dongheifacun","CLASS":"AK","GNID":"110115108245","XZNAME":"庞各庄镇","ORIG_FID":2003}},
{"type":"Feature","geometry":{"type":"Point","coordinates":[116.33702860421926,39.58831153957716]},"properties":{"NAME":"南小营村","PINYIN":"Nanxiaoyingcun","CLASS":"AK","GNID":"110115108221","XZNAME":"庞各庄镇","ORIG_FID":2004}},
{"type":"Feature","geometry":{"type":"Point","coordinates":[116.03970221740842,39.58919419713967]},"properties":{"NAME":"北洛村","PINYIN":"Beiluocun","CLASS":"AK","GNID":"110111118000","XZNAME":"琉璃河镇(地区)","ORIG_FID":2007}},
{"type":"Feature","geometry":{"type":"Point","coordinates":[116.40764966778609,39.58925098623576]},"properties":{"NAME":"龙头村","PINYIN":"Longtoucun","CLASS":"AK","GNID":"110115106200","XZNAME":"礼贤镇","ORIG_FID":2008}},
{"type":"Feature","geometry":{"type":"Point","coordinates":[116.35540341859598,39.58930953228164]},"properties":{"NAME":"东梨园村","PINYIN":"Dongliyuancun","CLASS":"AK","GNID":"110115108223","XZNAME":"庞各庄镇","ORIG_FID":2009}},
{"type":"Feature","geometry":{"type":"Point","coordinates":[116.07848176504905,39.589399709875835]},"properties":{"NAME":"北章村","PINYIN":"Beizhangcun","CLASS":"AK","GNID":"110111118000","XZNAME":"琉璃河镇(地区)","ORIG_FID":2010}},
{"type":"Feature","geometry":{"type":"Point","coordinates":[115.7542197669994,39.589866167853145]},"properties":{"NAME":"蔡家口村","PINYIN":"Caijiakoucun","CLASS":"AK","GNID":"110111110202","XZNAME":"张坊镇","ORIG_FID":2011}},
{"type":"Feature","geometry":{"type":"Point","coordinates":[116.15803262937078,39.589961522257425]},"properties":{"NAME":"官庄村","PINYIN":"Guanzhuangcun","CLASS":"AK","GNID":"110111118000","XZNAME":"琉璃河镇(地区)","ORIG_FID":2012}},
{"type":"Feature","geometry":{"type":"Point","coordinates":[116.10771405505082,39.5904385970975]},"properties":{"NAME":"保兴庄村","PINYIN":"Baoxingzhuangcun","CLASS":"AK","GNID":"110111118000","XZNAME":"琉璃河镇(地区)","ORIG_FID":2014}},
{"type":"Feature","geometry":{"type":"Point","coordinates":[115.8576396976533,39.590612789197095]},"properties":{"NAME":"六甲房村","PINYIN":"Liujiafangcun","CLASS":"AK","GNID":"110111108215","XZNAME":"长沟镇","ORIG_FID":2015}},
{"type":"Feature","geometry":{"type":"Point","coordinates":[115.89199584118978,39.590990076055824]},"properties":{"NAME":"沿村","PINYIN":"Yancun","CLASS":"AK","GNID":"110111108005","XZNAME":"长沟镇","ORIG_FID":2016}},
{"type":"Feature","geometry":{"type":"Point","coordinates":[116.23318791632725,39.59120856382992]},"properties":{"NAME":"赵村","PINYIN":"Zhaocun","CLASS":"AK","GNID":"110115108242","XZNAME":"庞各庄镇","ORIG_FID":2018}},
{"type":"Feature","geometry":{"type":"Point","coordinates":[115.7322540846692,39.591927688714094]},"properties":{"NAME":"大峪沟村","PINYIN":"Dayugoucun","CLASS":"AK","GNID":"110111110200","XZNAME":"张坊镇","ORIG_FID":2020}},
{"type":"Feature","geometry":{"type":"Point","coordinates":[115.93351395664641,39.59220544554141]},"properties":{"NAME":"七贤村","PINYIN":"Qixiancun","CLASS":"AK","GNID":"110111115207","XZNAME":"韩村河镇","ORIG_FID":2021}},
{"type":"Feature","geometry":{"type":"Point","coordinates":[116.36584676745039,39.59252629255597]},"properties":{"NAME":"李家巷村","PINYIN":"Lijiaxiangcun","CLASS":"AK","GNID":"110115108224","XZNAME":"庞各庄镇","ORIG_FID":2023}},
{"type":"Feature","geometry":{"type":"Point","coordinates":[116.4266096736051,39.59287961115248]},"properties":{"NAME":"佟家务村","PINYIN":"Tongjiawucun","CLASS":"AK","GNID":"110115105230","XZNAME":"安定镇","ORIG_FID":2024}},
{"type":"Feature","geometry":{"type":"Point","coordinates":[116.19303711245465,39.59430430141735]},"properties":{"NAME":"五间房村","PINYIN":"Wujianfangcun","CLASS":"AK","GNID":"110111118000","XZNAME":"琉璃河镇(地区)","ORIG_FID":2026}},
{"type":"Feature","geometry":{"type":"Point","coordinates":[115.87464344413507,39.59564929470281]},"properties":{"NAME":"南甘池村","PINYIN":"Nanganchicun","CLASS":"AK","GNID":"110111108212","XZNAME":"长沟镇","ORIG_FID":2028}},
{"type":"Feature","geometry":{"type":"Point","coordinates":[116.07715039230499,39.596245459504956]},"properties":{"NAME":"兴礼村","PINYIN":"Xinglicun","CLASS":"AK","GNID":"110111118000","XZNAME":"琉璃河镇(地区)","ORIG_FID":2030}},
{"type":"Feature","geometry":{"type":"Point","coordinates":[116.00996831139717,39.59625899051744]},"properties":{"NAME":"王家场","PINYIN":"Wangjiachang","CLASS":"BB","GNID":"110111000000","XZNAME":"","ORIG_FID":2031}},
{"type":"Feature","geometry":{"type":"Point","coordinates":[116.02455585450502,39.59632637281612]},"properties":{"NAME":"三街村","PINYIN":"Sanjiecun","CLASS":"AK","GNID":"110111118000","XZNAME":"琉璃河镇(地区)","ORIG_FID":2032}},
{"type":"Feature","geometry":{"type":"Point","coordinates":[115.86514189930415,39.596912441490154]},"properties":{"NAME":"西甘池村","PINYIN":"Xiganchicun","CLASS":"AK","GNID":"110111108214","XZNAME":"长沟镇","ORIG_FID":2034}},
{"type":"Feature","geometry":{"type":"Point","coordinates":[116.0420062671911,39.597561996901035]},"properties":{"NAME":"平各庄村","PINYIN":"Pinggezhuangcun","CLASS":"AK","GNID":"110111118000","XZNAME":"琉璃河镇(地区)","ORIG_FID":2035}},
{"type":"Feature","geometry":{"type":"Point","coordinates":[115.99744277369119,39.59841263803341]},"properties":{"NAME":"李庄村","PINYIN":"Lizhuangcun","CLASS":"AK","GNID":"110111118000","XZNAME":"琉璃河镇(地区)","ORIG_FID":2036}},
{"type":"Feature","geometry":{"type":"Point","coordinates":[116.0163557478683,39.59865023603522]},"properties":{"NAME":"二街村","PINYIN":"Erjiecun","CLASS":"AK","GNID":"110111118000","XZNAME":"琉璃河镇(地区)","ORIG_FID":2037}},
{"type":"Feature","geometry":{"type":"Point","coordinates":[116.13061558999465,39.59866383468285]},"properties":{"NAME":"石村村","PINYIN":"Shicuncun","CLASS":"AK","GNID":"110111118000","XZNAME":"琉璃河镇(地区)","ORIG_FID":2038}},
{"type":"Feature","geometry":{"type":"Point","coordinates":[116.44401642278626,39.598898113265875]},"properties":{"NAME":"马各庄村","PINYIN":"Magezhuangcun","CLASS":"AK","GNID":"110115105229","XZNAME":"安定镇","ORIG_FID":2039}},
{"type":"Feature","geometry":{"type":"Point","coordinates":[116.14047707699284,39.599193752969704]},"properties":{"NAME":"常舍村","PINYIN":"Changshecun","CLASS":"AK","GNID":"110111118000","XZNAME":"琉璃河镇(地区)","ORIG_FID":2041}},
{"type":"Feature","geometry":{"type":"Point","coordinates":[115.87255429509028,39.59921130837074]},"properties":{"NAME":"北甘池村","PINYIN":"Beiganchicun","CLASS":"AK","GNID":"110111108213","XZNAME":"长沟镇","ORIG_FID":2042}},
{"type":"Feature","geometry":{"type":"Point","coordinates":[116.48112215832332,39.59923144029719]},"properties":{"NAME":"西白塔村","PINYIN":"Xibaitacun","CLASS":"AK","GNID":"110115105224","XZNAME":"安定镇","ORIG_FID":2044}},
{"type":"Feature","geometry":{"type":"Point","coordinates":[116.18683810150227,39.59926200150559]},"properties":{"NAME":"鲍庄村","PINYIN":"Baozhuangcun","CLASS":"AK","GNID":"110111118000","XZNAME":"琉璃河镇(地区)","ORIG_FID":2045}},
{"type":"Feature","geometry":{"type":"Point","coordinates":[116.48701787033659,39.59980856945596]},"properties":{"NAME":"东白塔村","PINYIN":"Dongbaitacun","CLASS":"AK","GNID":"110115105225","XZNAME":"安定镇","ORIG_FID":2047}},
{"type":"Feature","geometry":{"type":"Point","coordinates":[116.35436244837742,39.60052407120936]},"properties":{"NAME":"北顿垡村","PINYIN":"Beidunfacun","CLASS":"AK","GNID":"110115108219","XZNAME":"庞各庄镇","ORIG_FID":2049}},
{"type":"Feature","geometry":{"type":"Point","coordinates":[116.09712841628046,39.601236405712825]},"properties":{"NAME":"东南吕村","PINYIN":"Dongnanlücun","CLASS":"AK","GNID":"110111118000","XZNAME":"琉璃河镇(地区)","ORIG_FID":2051}},
{"type":"Feature","geometry":{"type":"Point","coordinates":[116.16483083410361,39.60174021515482]},"properties":{"NAME":"小陶村","PINYIN":"Xiaotaocun","CLASS":"AK","GNID":"110111118000","XZNAME":"琉璃河镇(地区)","ORIG_FID":2052}},
{"type":"Feature","geometry":{"type":"Point","coordinates":[116.08787042852718,39.60199618030185]},"properties":{"NAME":"西南吕村","PINYIN":"Xi'nanlücun","CLASS":"AK","GNID":"110111118000","XZNAME":"琉璃河镇(地区)","ORIG_FID":2053}},
{"type":"Feature","geometry":{"type":"Point","coordinates":[116.77772207474109,39.602311702469976]},"properties":{"NAME":"小甸屯村","PINYIN":"Xiaodiantuncun","CLASS":"AK","GNID":"110112117234","XZNAME":"永乐店镇","ORIG_FID":2054}},
{"type":"Feature","geometry":{"type":"Point","coordinates":[115.95695367428189,39.60326880175185]},"properties":{"NAME":"韩村河镇","PINYIN":"Hancunhe Zhen","CLASS":"AI","GNID":"110111115000","XZNAME":"","ORIG_FID":2056}},
{"type":"Feature","geometry":{"type":"Point","coordinates":[115.78892178460084,39.60355622669427]},"properties":{"NAME":"下庄村","PINYIN":"Xiazhuangcun","CLASS":"AK","GNID":"110111109221","XZNAME":"大石窝镇","ORIG_FID":2057}},
{"type":"Feature","geometry":{"type":"Point","coordinates":[116.3380507717752,39.60394238963812]},"properties":{"NAME":"南义堂村","PINYIN":"Nanyitangcun","CLASS":"AK","GNID":"110115108217","XZNAME":"庞各庄镇","ORIG_FID":2059}},
{"type":"Feature","geometry":{"type":"Point","coordinates":[116.18786267771395,39.60399431784003]},"properties":{"NAME":"贾河村","PINYIN":"Jiahecun","CLASS":"AK","GNID":"110111118000","XZNAME":"琉璃河镇(地区)","ORIG_FID":2060}},
{"type":"Feature","geometry":{"type":"Point","coordinates":[116.2712597531198,39.60667364834407]},"properties":{"NAME":"定福庄村","PINYIN":"Dingfuzhuangcun","CLASS":"AK","GNID":"110115108238","XZNAME":"庞各庄镇","ORIG_FID":2061}},
{"type":"Feature","geometry":{"type":"Point","coordinates":[116.11684568071384,39.6070863970417]},"properties":{"NAME":"东南召村","PINYIN":"Dongnanzhaocun","CLASS":"AK","GNID":"110111118000","XZNAME":"琉璃河镇(地区)","ORIG_FID":2062}},
{"type":"Feature","geometry":{"type":"Point","coordinates":[115.8271858849305,39.60709107337044]},"properties":{"NAME":"三座庵村","PINYIN":"Sanzuo'ancun","CLASS":"AK","GNID":"110111108216","XZNAME":"长沟镇","ORIG_FID":2063}},
{"type":"Feature","geometry":{"type":"Point","coordinates":[116.31806397968066,39.60746962330353]},"properties":{"NAME":"薛营村","PINYIN":"Xueyingcun","CLASS":"AK","GNID":"110115108214","XZNAME":"庞各庄镇","ORIG_FID":2064}},
{"type":"Feature","geometry":{"type":"Point","coordinates":[115.91875957256337,39.60820322756594]},"properties":{"NAME":"五侯村","PINYIN":"Wuhoucun","CLASS":"AK","GNID":"110111115211","XZNAME":"韩村河镇","ORIG_FID":2065}},
{"type":"Feature","geometry":{"type":"Point","coordinates":[116.33424293502001,39.60895811577343]},"properties":{"NAME":"西义堂村","PINYIN":"Xiyitangcun","CLASS":"AK","GNID":"110115108215","XZNAME":"庞各庄镇","ORIG_FID":2067}},
{"type":"Feature","geometry":{"type":"Point","coordinates":[116.1093378845258,39.609058978983484]},"properties":{"NAME":"西南召村","PINYIN":"Xinanzhaocun","CLASS":"AK","GNID":"110111118000","XZNAME":"琉璃河镇(地区)","ORIG_FID":2068}},
{"type":"Feature","geometry":{"type":"Point","coordinates":[116.34122478162072,39.60906089841521]},"properties":{"NAME":"东义堂村","PINYIN":"Dongyitangcun","CLASS":"AK","GNID":"110115108216","XZNAME":"庞各庄镇","ORIG_FID":2069}},
{"type":"Feature","geometry":{"type":"Point","coordinates":[116.02463112282364,39.60958396926726]},"properties":{"NAME":"琉璃河镇(地区)","PINYIN":"Liulihe Zhen(Diqu)","CLASS":"AI","GNID":"110111118000","XZNAME":"","ORIG_FID":2070}},
{"type":"Feature","geometry":{"type":"Point","coordinates":[116.17259375254102,39.610588057473706]},"properties":{"NAME":"大陶村","PINYIN":"Dataocun","CLASS":"AK","GNID":"110111118000","XZNAME":"琉璃河镇(地区)","ORIG_FID":2072}},
{"type":"Feature","geometry":{"type":"Point","coordinates":[116.42084454063951,39.611080952915685]},"properties":{"NAME":"绿茵花园别墅","PINYIN":"Lüyinhuayuan Bieshu","CLASS":"BA","GNID":"110115000000","XZNAME":"","ORIG_FID":2074}},
{"type":"Feature","geometry":{"type":"Point","coordinates":[116.4001258497365,39.611522179133374]},"properties":{"NAME":"西沙窝村","PINYIN":"Xishawocun","CLASS":"AK","GNID":"110115110234","XZNAME":"魏善庄镇","ORIG_FID":2075}},
{"type":"Feature","geometry":{"type":"Point","coordinates":[116.42060049129941,39.61197018874074]},"properties":{"NAME":"张家场村","PINYIN":"Zhangjiachangcun","CLASS":"AK","GNID":"110115110238","XZNAME":"魏善庄镇","ORIG_FID":2078}},
{"type":"Feature","geometry":{"type":"Point","coordinates":[116.38473194226138,39.61225581070176]},"properties":{"NAME":"大狼垡村","PINYIN":"Dalangfacun","CLASS":"AK","GNID":"110115110233","XZNAME":"魏善庄镇","ORIG_FID":2080}},
{"type":"Feature","geometry":{"type":"Point","coordinates":[115.76955614663818,39.61245607833935]},"properties":{"NAME":"水头村","PINYIN":"Shuitoucun","CLASS":"AK","GNID":"110111109223","XZNAME":"大石窝镇","ORIG_FID":2081}},
{"type":"Feature","geometry":{"type":"Point","coordinates":[116.55436444545298,39.613023019974406]},"properties":{"NAME":"于家务村","PINYIN":"Yujiawucun","CLASS":"AK","GNID":"110115105221","XZNAME":"安定镇","ORIG_FID":2082}},
{"type":"Feature","geometry":{"type":"Point","coordinates":[116.69278371413331,39.61302385763493]},"properties":{"NAME":"凤河营村","PINYIN":"Fengheyingcun","CLASS":"AK","GNID":"110115104253","XZNAME":"采育镇","ORIG_FID":2083}},
{"type":"Feature","geometry":{"type":"Point","coordinates":[115.67957210328693,39.613274852318185]},"properties":{"NAME":"东沟","PINYIN":"Donggou","CLASS":"BB","GNID":"110111000000","XZNAME":"","ORIG_FID":2084}},
{"type":"Feature","geometry":{"type":"Point","coordinates":[116.02589297352107,39.613336152053606]},"properties":{"NAME":"洄城村","PINYIN":"Huichengcun","CLASS":"AK","GNID":"110111118000","XZNAME":"琉璃河镇(地区)","ORIG_FID":2085}},
{"type":"Feature","geometry":{"type":"Point","coordinates":[115.96062860209612,39.61351828088766]},"properties":{"NAME":"东营村","PINYIN":"Dongyingcun","CLASS":"AK","GNID":"110111115200","XZNAME":"韩村河镇","ORIG_FID":2086}},
{"type":"Feature","geometry":{"type":"Point","coordinates":[116.40585769439969,39.6136627424827]},"properties":{"NAME":"东沙窝村","PINYIN":"Dongshawocun","CLASS":"AK","GNID":"110115110235","XZNAME":"魏善庄镇","ORIG_FID":2087}},
{"type":"Feature","geometry":{"type":"Point","coordinates":[116.5339655996654,39.61404231270667]},"properties":{"NAME":"通州马坊村","PINYIN":"Tongzhoumafangcun","CLASS":"AK","GNID":"110115105220","XZNAME":"安定镇","ORIG_FID":2088}},
{"type":"Feature","geometry":{"type":"Point","coordinates":[115.95580168991516,39.614097849232]},"properties":{"NAME":"赵各庄村","PINYIN":"Zhaogezhuangcun","CLASS":"AK","GNID":"110111115201","XZNAME":"韩村河镇","ORIG_FID":2089}},
{"type":"Feature","geometry":{"type":"Point","coordinates":[116.03177392239671,39.61419550373577]},"properties":{"NAME":"刘李店村","PINYIN":"Liulidiancun","CLASS":"AK","GNID":"110111118000","XZNAME":"琉璃河镇(地区)","ORIG_FID":2090}},
{"type":"Feature","geometry":{"type":"Point","coordinates":[116.19744942420759,39.6144614781857]},"properties":{"NAME":"窑上村","PINYIN":"Yaoshangcun","CLASS":"AK","GNID":"110111118000","XZNAME":"琉璃河镇(地区)","ORIG_FID":2091}},
{"type":"Feature","geometry":{"type":"Point","coordinates":[116.45340700888629,39.615035894440894]},"properties":{"NAME":"西芦各庄村","PINYIN":"Xilugezhuangcun","CLASS":"AK","GNID":"110115105215","XZNAME":"安定镇","ORIG_FID":2092}},
{"type":"Feature","geometry":{"type":"Point","coordinates":[116.62707436350563,39.61523755776879]},"properties":{"NAME":"大同营村","PINYIN":"Datongyingcun","CLASS":"AK","GNID":"110115104242","XZNAME":"采育镇","ORIG_FID":2095}},
{"type":"Feature","geometry":{"type":"Point","coordinates":[116.07816398384662,39.61680021238881]},"properties":{"NAME":"庄头村","PINYIN":"Zhuangtoucun","CLASS":"AK","GNID":"110111118000","XZNAME":"琉璃河镇(地区)","ORIG_FID":2096}},
{"type":"Feature","geometry":{"type":"Point","coordinates":[116.67563737860047,39.6171842957652]},"properties":{"NAME":"康营村","PINYIN":"Kangyingcun","CLASS":"AK","GNID":"110115104250","XZNAME":"采育镇","ORIG_FID":2097}},
{"type":"Feature","geometry":{"type":"Point","coordinates":[116.49464355422164,39.617346396415435]},"properties":{"NAME":"安定镇","PINYIN":"Anding Zhen","CLASS":"AI","GNID":"110115105000","XZNAME":"","ORIG_FID":2098}},
{"type":"Feature","geometry":{"type":"Point","coordinates":[116.34457249170836,39.61738835354885]},"properties":{"NAME":"南李渠村","PINYIN":"Nanliqucun","CLASS":"AK","GNID":"110115108212","XZNAME":"庞各庄镇","ORIG_FID":2099}},
{"type":"Feature","geometry":{"type":"Point","coordinates":[116.24096380674322,39.61770834543117]},"properties":{"NAME":"保安庄村","PINYIN":"Bao'anzhuangcun","CLASS":"AK","GNID":"110115108234","XZNAME":"庞各庄镇","ORIG_FID":2100}},
{"type":"Feature","geometry":{"type":"Point","coordinates":[116.06297776683196,39.61801421646936]},"properties":{"NAME":"立教村","PINYIN":"Lijiaocun","CLASS":"AK","GNID":"110111118000","XZNAME":"琉璃河镇(地区)","ORIG_FID":2101}},
{"type":"Feature","geometry":{"type":"Point","coordinates":[115.7981239612852,39.61804049370468]},"properties":{"NAME":"三岔村","PINYIN":"Sanchacun","CLASS":"AK","GNID":"110111109222","XZNAME":"大石窝镇","ORIG_FID":2102}},
{"type":"Feature","geometry":{"type":"Point","coordinates":[115.84911188969306,39.61838195574359]},"properties":{"NAME":"罗家峪村","PINYIN":"Luojiayucun","CLASS":"AK","GNID":"110111115226","XZNAME":"韩村河镇","ORIG_FID":2103}},
{"type":"Feature","geometry":{"type":"Point","coordinates":[116.14625718906811,39.61863301932374]},"properties":{"NAME":"务滋村","PINYIN":"Wuzicun","CLASS":"AK","GNID":"110111118000","XZNAME":"琉璃河镇(地区)","ORIG_FID":2104}},
{"type":"Feature","geometry":{"type":"Point","coordinates":[116.28519976830361,39.618938177590216]},"properties":{"NAME":"梁家务村","PINYIN":"Liangjiawucun","CLASS":"AK","GNID":"110115108235","XZNAME":"庞各庄镇","ORIG_FID":2106}},
{"type":"Feature","geometry":{"type":"Point","coordinates":[116.30120650551014,39.62068779055601]},"properties":{"NAME":"河南村","PINYIN":"Henancun","CLASS":"AK","GNID":"110115108210","XZNAME":"庞各庄镇","ORIG_FID":2108}},
{"type":"Feature","geometry":{"type":"Point","coordinates":[115.99118786005333,39.620810928495146]},"properties":{"NAME":"吉羊村","PINYIN":"Jiyangcun","CLASS":"AK","GNID":"110111104200","XZNAME":"石楼镇","ORIG_FID":2109}},
{"type":"Feature","geometry":{"type":"Point","coordinates":[116.78726669535195,39.62098164865298]},"properties":{"NAME":"三垡村","PINYIN":"Sanfacun","CLASS":"AK","GNID":"110112117233","XZNAME":"永乐店镇","ORIG_FID":2110}},
{"type":"Feature","geometry":{"type":"Point","coordinates":[116.1331498417472,39.621549869937496]},"properties":{"NAME":"西地村","PINYIN":"Xidicun","CLASS":"AK","GNID":"110111118000","XZNAME":"琉璃河镇(地区)","ORIG_FID":2111}},
{"type":"Feature","geometry":{"type":"Point","coordinates":[116.1101742429356,39.62159162178054]},"properties":{"NAME":"袁庄村","PINYIN":"Yuanzhuangcun","CLASS":"AK","GNID":"110111103220","XZNAME":"窦店镇","ORIG_FID":2112}},
{"type":"Feature","geometry":{"type":"Point","coordinates":[116.64430621708752,39.62175355973656]},"properties":{"NAME":"包头营村","PINYIN":"Baotouyingcun","CLASS":"AK","GNID":"110115104234","XZNAME":"采育镇","ORIG_FID":2113}},
{"type":"Feature","geometry":{"type":"Point","coordinates":[116.48671821438889,39.62175570122568]},"properties":{"NAME":"驴房村","PINYIN":"Lüfangcun","CLASS":"AK","GNID":"110115105212","XZNAME":"安定镇","ORIG_FID":2114}},
{"type":"Feature","geometry":{"type":"Point","coordinates":[116.66283685162065,39.62184815636327]},"properties":{"NAME":"利市营村","PINYIN":"Lishiyingcun","CLASS":"AK","GNID":"110115104240","XZNAME":"采育镇","ORIG_FID":2115}},
{"type":"Feature","geometry":{"type":"Point","coordinates":[116.09393583448714,39.62282152241521]},"properties":{"NAME":"刘平庄村","PINYIN":"Liupingzhuangcun","CLASS":"AK","GNID":"110111103219","XZNAME":"窦店镇","ORIG_FID":2116}},
{"type":"Feature","geometry":{"type":"Point","coordinates":[116.65371155191218,39.62332410417835]},"properties":{"NAME":"小皮营村","PINYIN":"Xiaopiyingcun","CLASS":"AK","GNID":"110115104238","XZNAME":"采育镇","ORIG_FID":2117}},
{"type":"Feature","geometry":{"type":"Point","coordinates":[116.39273842471094,39.623539772972904]},"properties":{"NAME":"魏庄村","PINYIN":"Weizhuangcun","CLASS":"AK","GNID":"110115110229","XZNAME":"魏善庄镇","ORIG_FID":2118}},
{"type":"Feature","geometry":{"type":"Point","coordinates":[116.73399960088553,39.62405684204891]},"properties":{"NAME":"临沟屯村","PINYIN":"Lingoutuncun","CLASS":"AK","GNID":"110112117238","XZNAME":"永乐店镇","ORIG_FID":2120}},
{"type":"Feature","geometry":{"type":"Point","coordinates":[116.32367991043071,39.62424750898626]},"properties":{"NAME":"民生村","PINYIN":"Minshengcun","CLASS":"AK","GNID":"110115108208","XZNAME":"庞各庄镇","ORIG_FID":2122}},
{"type":"Feature","geometry":{"type":"Point","coordinates":[116.34036032073844,39.62433002973391]},"properties":{"NAME":"北李渠村","PINYIN":"Beiliqucun","CLASS":"AK","GNID":"110115108209","XZNAME":"庞各庄镇","ORIG_FID":2124}},
{"type":"Feature","geometry":{"type":"Point","coordinates":[116.19578849085646,39.624421672838665]},"properties":{"NAME":"万里村","PINYIN":"Wanlicun","CLASS":"AK","GNID":"110111118000","XZNAME":"琉璃河镇(地区)","ORIG_FID":2125}},
{"type":"Feature","geometry":{"type":"Point","coordinates":[115.5525636031681,39.62533176479051]},"properties":{"NAME":"前头港","PINYIN":"Qiantougang","CLASS":"BB","GNID":"110111000000","XZNAME":"","ORIG_FID":2127}},
{"type":"Feature","geometry":{"type":"Point","coordinates":[116.58711797782212,39.62553412767545]},"properties":{"NAME":"李堡村","PINYIN":"Libucun","CLASS":"AK","GNID":"110115111241","XZNAME":"长子营镇","ORIG_FID":2128}},
{"type":"Feature","geometry":{"type":"Point","coordinates":[115.64578956199294,39.62598823927088]},"properties":{"NAME":"四渡岭","PINYIN":"Siduling","CLASS":"BB","GNID":"110111000000","XZNAME":"","ORIG_FID":2129}},
{"type":"Feature","geometry":{"type":"Point","coordinates":[116.69905592173149,39.6263799184716]},"properties":{"NAME":"张各庄村","PINYIN":"Zhanggezhuangcun","CLASS":"AK","GNID":"110115104248","XZNAME":"采育镇","ORIG_FID":2131}},
{"type":"Feature","geometry":{"type":"Point","coordinates":[116.30982516682232,39.62648842009848]},"properties":{"NAME":"幸福村","PINYIN":"Xingfucun","CLASS":"AK","GNID":"110115108205","XZNAME":"庞各庄镇","ORIG_FID":2132}},
{"type":"Feature","geometry":{"type":"Point","coordinates":[115.88220829849134,39.626853453818356]},"properties":{"NAME":"天开村","PINYIN":"Tiankaicun","CLASS":"AK","GNID":"110111115219","XZNAME":"韩村河镇","ORIG_FID":2133}},
{"type":"Feature","geometry":{"type":"Point","coordinates":[116.56835559934866,39.62731756027678]},"properties":{"NAME":"赤鲁村","PINYIN":"Chilucun","CLASS":"AK","GNID":"110115111240","XZNAME":"长子营镇","ORIG_FID":2134}},
{"type":"Feature","geometry":{"type":"Point","coordinates":[116.27467663965123,39.628315705991575]},"properties":{"NAME":"东高各庄村","PINYIN":"Donggaogezhuangcun","CLASS":"AK","GNID":"110115108233","XZNAME":"庞各庄镇","ORIG_FID":2135}},
{"type":"Feature","geometry":{"type":"Point","coordinates":[116.61632599031572,39.62850429373122]},"properties":{"NAME":"再城营一村","PINYIN":"Zaichengyingyicun","CLASS":"AK","GNID":"110115111238","XZNAME":"长子营镇","ORIG_FID":2136}},
{"type":"Feature","geometry":{"type":"Point","coordinates":[115.94383285861957,39.62995001502653]},"properties":{"NAME":"大次洛村","PINYIN":"Daciluocun","CLASS":"AK","GNID":"110111104207","XZNAME":"石楼镇","ORIG_FID":2137}},
{"type":"Feature","geometry":{"type":"Point","coordinates":[115.9583138945212,39.630075267309195]},"properties":{"NAME":"杨驸马庄村","PINYIN":"Yangfumazhuangcun","CLASS":"AK","GNID":"110111104205","XZNAME":"石楼镇","ORIG_FID":2138}},
{"type":"Feature","geometry":{"type":"Point","coordinates":[116.31383537667364,39.63009863012737]},"properties":{"NAME":"庞各庄","PINYIN":"Panggezhuang","CLASS":"BB","GNID":"110115000000","XZNAME":"","ORIG_FID":2139}},
{"type":"Feature","geometry":{"type":"Point","coordinates":[116.41742546816255,39.63048686468369]},"properties":{"NAME":"西南研垡村","PINYIN":"Xinanyanfacun","CLASS":"AK","GNID":"110115110231","XZNAME":"魏善庄镇","ORIG_FID":2142}},
{"type":"Feature","geometry":{"type":"Point","coordinates":[116.2458477010421,39.63073425406885]},"properties":{"NAME":"留民庄村","PINYIN":"Liuminzhuangcun","CLASS":"AK","GNID":"110115108231","XZNAME":"庞各庄镇","ORIG_FID":2143}},
{"type":"Feature","geometry":{"type":"Point","coordinates":[116.42375019899087,39.63075377933949]},"properties":{"NAME":"东南研垡村","PINYIN":"Dongnanyanfacun","CLASS":"AK","GNID":"110115110232","XZNAME":"魏善庄镇","ORIG_FID":2144}},
{"type":"Feature","geometry":{"type":"Point","coordinates":[116.40933411906576,39.63106389050158]},"properties":{"NAME":"魏善庄镇","PINYIN":"Weishanzhuang Zhen","CLASS":"AI","GNID":"110115110000","XZNAME":"","ORIG_FID":2145}},
{"type":"Feature","geometry":{"type":"Point","coordinates":[115.5874559697065,39.63141851767747]},"properties":{"NAME":"九渡村","PINYIN":"Jiuducun","CLASS":"AK","GNID":"110111111206","XZNAME":"十渡镇","ORIG_FID":2146}},
{"type":"Feature","geometry":{"type":"Point","coordinates":[116.05104974665282,39.63164754414601]},"properties":{"NAME":"白草洼村","PINYIN":"Baicaowacun","CLASS":"AK","GNID":"110111103201","XZNAME":"窦店镇","ORIG_FID":2147}},
{"type":"Feature","geometry":{"type":"Point","coordinates":[116.47088861083009,39.6319175792856]},"properties":{"NAME":"潘家马房村","PINYIN":"Panjiamafangcun","CLASS":"AK","GNID":"110115105210","XZNAME":"安定镇","ORIG_FID":2148}},
{"type":"Feature","geometry":{"type":"Point","coordinates":[116.31734996483253,39.63425740161438]},"properties":{"NAME":"庞各庄镇","PINYIN":"Panggezhuang Zhen","CLASS":"AI","GNID":"110115108000","XZNAME":"","ORIG_FID":2149}},
{"type":"Feature","geometry":{"type":"Point","coordinates":[116.54474984842581,39.63426579845484]},"properties":{"NAME":"前野厂村","PINYIN":"Qianyechangcun","CLASS":"AK","GNID":"110115105207","XZNAME":"安定镇","ORIG_FID":2150}},
{"type":"Feature","geometry":{"type":"Point","coordinates":[116.74105714783747,39.63495961543782]},"properties":{"NAME":"应寺村","PINYIN":"Yingsicun","CLASS":"AK","GNID":"110112117236","XZNAME":"永乐店镇","ORIG_FID":2151}},
{"type":"Feature","geometry":{"type":"Point","coordinates":[116.64022497933824,39.635697665840034]},"properties":{"NAME":"沙窝营村","PINYIN":"Shawoyingcun","CLASS":"AK","GNID":"110115104228","XZNAME":"采育镇","ORIG_FID":2152}},
{"type":"Feature","geometry":{"type":"Point","coordinates":[116.03166722969712,39.63598808658793]},"properties":{"NAME":"芦村村","PINYIN":"Lucuncun","CLASS":"AK","GNID":"110111103202","XZNAME":"窦店镇","ORIG_FID":2153}},
{"type":"Feature","geometry":{"type":"Point","coordinates":[116.7678907621681,39.63699561812844]},"properties":{"NAME":"柴厂屯村","PINYIN":"Chaichangtuncun","CLASS":"AK","GNID":"110112117228","XZNAME":"永乐店镇","ORIG_FID":2154}},
{"type":"Feature","geometry":{"type":"Point","coordinates":[115.56824774622156,39.63749583723493]},"properties":{"NAME":"西河村","PINYIN":"Xihecun","CLASS":"AK","GNID":"110111111204","XZNAME":"十渡镇","ORIG_FID":2155}},
{"type":"Feature","geometry":{"type":"Point","coordinates":[116.52697568018556,39.63767371862073]},"properties":{"NAME":"高店村","PINYIN":"Gaodiancun","CLASS":"AK","GNID":"110115105205","XZNAME":"安定镇","ORIG_FID":2156}},
{"type":"Feature","geometry":{"type":"Point","coordinates":[115.60051360311755,39.638305687063465]},"properties":{"NAME":"八渡村","PINYIN":"Baducun","CLASS":"AK","GNID":"110111111207","XZNAME":"十渡镇","ORIG_FID":2158}},
{"type":"Feature","geometry":{"type":"Point","coordinates":[115.86039047093782,39.63932609166339]},"properties":{"NAME":"孤山口村","PINYIN":"Gushankoucun","CLASS":"AK","GNID":"110111115224","XZNAME":"韩村河镇","ORIG_FID":2160}},
{"type":"Feature","geometry":{"type":"Point","coordinates":[115.58311603692847,39.63955038946372]},"properties":{"NAME":"十渡镇","PINYIN":"Shidu Zhen","CLASS":"AI","GNID":"110111111000","XZNAME":"","ORIG_FID":2162}},
{"type":"Feature","geometry":{"type":"Point","coordinates":[116.68286674632981,39.63965841025647]},"properties":{"NAME":"东半壁店村","PINYIN":"Dongbanbidiancun","CLASS":"AK","GNID":"110115104245","XZNAME":"采育镇","ORIG_FID":2163}},
{"type":"Feature","geometry":{"type":"Point","coordinates":[116.58539563237613,39.63974154224488]},"properties":{"NAME":"朱庄村","PINYIN":"Zhuzhuangcun","CLASS":"AK","GNID":"110115111234","XZNAME":"长子营镇","ORIG_FID":2164}},
{"type":"Feature","geometry":{"type":"Point","coordinates":[116.2421079052313,39.63978828629129]},"properties":{"NAME":"前管营村","PINYIN":"Qianguanyingcun","CLASS":"AK","GNID":"110115109221","XZNAME":"北臧村镇","ORIG_FID":2165}},
{"type":"Feature","geometry":{"type":"Point","coordinates":[116.3515638120579,39.640011835443104]},"properties":{"NAME":"四各庄村","PINYIN":"Sigezhuangcun","CLASS":"AK","GNID":"110115108203","XZNAME":"庞各庄镇","ORIG_FID":2166}},
{"type":"Feature","geometry":{"type":"Point","coordinates":[116.38364611611007,39.640454995439626]},"properties":{"NAME":"岳家务村","PINYIN":"Yuejiawucun","CLASS":"AK","GNID":"110115110228","XZNAME":"魏善庄镇","ORIG_FID":2167}},
{"type":"Feature","geometry":{"type":"Point","coordinates":[116.7977795160978,39.640510358009536]},"properties":{"NAME":"半截河村","PINYIN":"Banjiehecun","CLASS":"AK","GNID":"110112117231","XZNAME":"永乐店镇","ORIG_FID":2168}},
{"type":"Feature","geometry":{"type":"Point","coordinates":[115.62703034538707,39.64080337808378]},"properties":{"NAME":"六渡村","PINYIN":"Liuducun","CLASS":"AK","GNID":"110111111216","XZNAME":"十渡镇","ORIG_FID":2169}},
{"type":"Feature","geometry":{"type":"Point","coordinates":[115.91452432126466,39.64086789464565]},"properties":{"NAME":"瓦井村","PINYIN":"Wajingcun","CLASS":"AK","GNID":"110111117000","XZNAME":"周口店镇(地区)","ORIG_FID":2170}},
{"type":"Feature","geometry":{"type":"Point","coordinates":[116.13131800014317,39.641277474631934]},"properties":{"NAME":"普安屯村","PINYIN":"Pu'antuncun","CLASS":"AK","GNID":"110111103222","XZNAME":"窦店镇","ORIG_FID":2171}},
{"type":"Feature","geometry":{"type":"Point","coordinates":[115.9338314716074,39.64185521619497]},"properties":{"NAME":"南韩继村","PINYIN":"Nanhanjicun","CLASS":"AK","GNID":"110111117000","XZNAME":"周口店镇(地区)","ORIG_FID":2173}},
{"type":"Feature","geometry":{"type":"Point","coordinates":[115.61618613093788,39.642208970128316]},"properties":{"NAME":"七渡村","PINYIN":"Qiducun","CLASS":"AK","GNID":"110111111217","XZNAME":"十渡镇","ORIG_FID":2175}},
{"type":"Feature","geometry":{"type":"Point","coordinates":[116.1635542508384,39.642216818226046]},"properties":{"NAME":"前柳村","PINYIN":"Qianliucun","CLASS":"AK","GNID":"110111103226","XZNAME":"窦店镇","ORIG_FID":2176}},
{"type":"Feature","geometry":{"type":"Point","coordinates":[116.45503964237211,39.64244024608004]},"properties":{"NAME":"河南辛庄村","PINYIN":"Henanxinzhuangcun","CLASS":"AK","GNID":"110115110218","XZNAME":"魏善庄镇","ORIG_FID":2177}},
{"type":"Feature","geometry":{"type":"Point","coordinates":[116.50485681603188,39.64260359998369]},"properties":{"NAME":"前安定村","PINYIN":"Qian'andingcun","CLASS":"AK","GNID":"110115105202","XZNAME":"安定镇","ORIG_FID":2178}},
{"type":"Feature","geometry":{"type":"Point","coordinates":[115.76165998782984,39.642904390598325]},"properties":{"NAME":"化唐沟","PINYIN":"Huatanggou","CLASS":"BB","GNID":"110111000000","XZNAME":"","ORIG_FID":2180}},
{"type":"Feature","geometry":{"type":"Point","coordinates":[116.68963396612422,39.64299998961032]},"properties":{"NAME":"大里庄村","PINYIN":"Dalizhuangcun","CLASS":"AK","GNID":"110115104244","XZNAME":"采育镇","ORIG_FID":2181}},
{"type":"Feature","geometry":{"type":"Point","coordinates":[115.97882840008825,39.64322190990073]},"properties":{"NAME":"石楼村","PINYIN":"Shiloucun","CLASS":"AK","GNID":"110111104202","XZNAME":"石楼镇","ORIG_FID":2182}},
{"type":"Feature","geometry":{"type":"Point","coordinates":[116.19679443878258,39.643988468021]},"properties":{"NAME":"任营村","PINYIN":"Renyingcun","CLASS":"AK","GNID":"110111118000","XZNAME":"琉璃河镇(地区)","ORIG_FID":2183}},
{"type":"Feature","geometry":{"type":"Point","coordinates":[115.58795423594898,39.64451218217829]},"properties":{"NAME":"十渡村","PINYIN":"Shiducun","CLASS":"AK","GNID":"110111111208","XZNAME":"十渡镇","ORIG_FID":2184}},
{"type":"Feature","geometry":{"type":"Point","coordinates":[116.4118903877466,39.64493429314137]},"properties":{"NAME":"前苑上村","PINYIN":"Qianyuanshangcun","CLASS":"AK","GNID":"110115110227","XZNAME":"魏善庄镇","ORIG_FID":2185}},
{"type":"Feature","geometry":{"type":"Point","coordinates":[115.72869822960085,39.64603788941359]},"properties":{"NAME":"三合庄","PINYIN":"Sanhezhuang","CLASS":"BB","GNID":"110111000000","XZNAME":"","ORIG_FID":2186}},
{"type":"Feature","geometry":{"type":"Point","coordinates":[116.16572420707458,39.64641510819416]},"properties":{"NAME":"陈家房村","PINYIN":"Chenjiafangcun","CLASS":"AK","GNID":"110111103227","XZNAME":"窦店镇","ORIG_FID":2187}},
{"type":"Feature","geometry":{"type":"Point","coordinates":[116.3935944329086,39.646437492862766]},"properties":{"NAME":"南田各庄村","PINYIN":"Nantiangezhuangcun","CLASS":"AK","GNID":"110115110225","XZNAME":"魏善庄镇","ORIG_FID":2188}},
{"type":"Feature","geometry":{"type":"Point","coordinates":[116.49863454604969,39.646514064744224]},"properties":{"NAME":"后安定村","PINYIN":"Hou'andingcun","CLASS":"AK","GNID":"110115105201","XZNAME":"安定镇","ORIG_FID":2189}},
{"type":"Feature","geometry":{"type":"Point","coordinates":[116.06175173339177,39.64657638205234]},"properties":{"NAME":"窦店村","PINYIN":"Doudiancun","CLASS":"AK","GNID":"110111103200","XZNAME":"窦店镇","ORIG_FID":2190}},
{"type":"Feature","geometry":{"type":"Point","coordinates":[116.3680979467983,39.64669635429976]},"properties":{"NAME":"陈各庄村","PINYIN":"Chengezhuangcun","CLASS":"AK","GNID":"110115110223","XZNAME":"魏善庄镇","ORIG_FID":2191}},
{"type":"Feature","geometry":{"type":"Point","coordinates":[116.11306487591072,39.6472953776815]},"properties":{"NAME":"一街村","PINYIN":"Yijiecun","CLASS":"AK","GNID":"110111103212","XZNAME":"窦店镇","ORIG_FID":2192}},
{"type":"Feature","geometry":{"type":"Point","coordinates":[115.83196231284096,39.647330243347504]},"properties":{"NAME":"下中院村","PINYIN":"Xiazhongyuancun","CLASS":"AK","GNID":"110111115223","XZNAME":"韩村河镇","ORIG_FID":2193}},
{"type":"Feature","geometry":{"type":"Point","coordinates":[116.71783255237547,39.64736635148639]},"properties":{"NAME":"仇庄村","PINYIN":"Qiuzhuangcun","CLASS":"AK","GNID":"110112209218","XZNAME":"于家务回族乡","ORIG_FID":2194}},
{"type":"Feature","geometry":{"type":"Point","coordinates":[116.43062767756595,39.64772167937856]},"properties":{"NAME":"大刘各庄村","PINYIN":"Daliugezhuangcun","CLASS":"AK","GNID":"110115110219","XZNAME":"魏善庄镇","ORIG_FID":2195}},
{"type":"Feature","geometry":{"type":"Point","coordinates":[115.95755769401133,39.64805673274654]},"properties":{"NAME":"支楼村","PINYIN":"Zhiloucun","CLASS":"AK","GNID":"110111104204","XZNAME":"石楼镇","ORIG_FID":2196}},
{"type":"Feature","geometry":{"type":"Point","coordinates":[115.82414049080002,39.64954415576925]},"properties":{"NAME":"上中院村","PINYIN":"Shangzhongyuancun","CLASS":"AK","GNID":"110111115222","XZNAME":"韩村河镇","ORIG_FID":2198}},
{"type":"Feature","geometry":{"type":"Point","coordinates":[116.5227143446575,39.6497835084313]},"properties":{"NAME":"沙河村","PINYIN":"Shahecun","CLASS":"AK","GNID":"110115105203","XZNAME":"安定镇","ORIG_FID":2199}},
{"type":"Feature","geometry":{"type":"Point","coordinates":[115.51454418626376,39.64981745295991]},"properties":{"NAME":"下刘财","PINYIN":"Xialiucai","CLASS":"BB","GNID":"110111000000","XZNAME":"","ORIG_FID":2200}},
{"type":"Feature","geometry":{"type":"Point","coordinates":[116.39288128030194,39.64983673160392]},"properties":{"NAME":"北田各庄村","PINYIN":"Beitiangezhuangcun","CLASS":"AK","GNID":"110115110224","XZNAME":"魏善庄镇","ORIG_FID":2201}},
{"type":"Feature","geometry":{"type":"Point","coordinates":[116.06173175965185,39.650966051398576]},"properties":{"NAME":"窦店镇","PINYIN":"Doudian Zhen","CLASS":"AI","GNID":"110111103000","XZNAME":"","ORIG_FID":2202}},
{"type":"Feature","geometry":{"type":"Point","coordinates":[116.61302625791197,39.651580374231536]},"properties":{"NAME":"岳街村","PINYIN":"Yuejiecun","CLASS":"AK","GNID":"110115104225","XZNAME":"采育镇","ORIG_FID":2203}},
{"type":"Feature","geometry":{"type":"Point","coordinates":[115.74301900350144,39.65170405005286]},"properties":{"NAME":"黑牛水","PINYIN":"Heiniushui","CLASS":"BB","GNID":"110111000000","XZNAME":"","ORIG_FID":2204}},
{"type":"Feature","geometry":{"type":"Point","coordinates":[116.16905478891435,39.65185282889943]},"properties":{"NAME":"北柳村","PINYIN":"Beiliucun","CLASS":"AK","GNID":"110111103228","XZNAME":"窦店镇","ORIG_FID":2205}},
{"type":"Feature","geometry":{"type":"Point","coordinates":[116.27080773164205,39.65195365970118]},"properties":{"NAME":"皮各庄三村","PINYIN":"Pigezhuangsancun","CLASS":"AK","GNID":"110115109219","XZNAME":"北臧村镇","ORIG_FID":2206}},
{"type":"Feature","geometry":{"type":"Point","coordinates":[116.20599609637917,39.65195427525155]},"properties":{"NAME":"赵营村","PINYIN":"Zhaoyingcun","CLASS":"AK","GNID":"110111118000","XZNAME":"琉璃河镇(地区)","ORIG_FID":2207}},
{"type":"Feature","geometry":{"type":"Point","coordinates":[116.27194373367246,39.651980397478326]},"properties":{"NAME":"皮各庄二村","PINYIN":"Pigezhuang'ercun","CLASS":"AK","GNID":"110115109218","XZNAME":"北臧村镇","ORIG_FID":2208}},
{"type":"Feature","geometry":{"type":"Point","coordinates":[116.66854166203122,39.65200952173467]},"properties":{"NAME":"邵各庄村","PINYIN":"Shaogezhuangcun","CLASS":"AK","GNID":"110115104226","XZNAME":"采育镇","ORIG_FID":2209}},
{"type":"Feature","geometry":{"type":"Point","coordinates":[116.56957248201478,39.6525101357895]},"properties":{"NAME":"罗庄一村","PINYIN":"Luozhuangyicun","CLASS":"AK","GNID":"110115111231","XZNAME":"长子营镇","ORIG_FID":2210}},
{"type":"Feature","geometry":{"type":"Point","coordinates":[116.56945211661608,39.652585734978985]},"properties":{"NAME":"罗庄三村","PINYIN":"Luozhuangsancun","CLASS":"AK","GNID":"110115111233","XZNAME":"长子营镇","ORIG_FID":2211}},
{"type":"Feature","geometry":{"type":"Point","coordinates":[116.66130404855431,39.65266864143784]},"properties":{"NAME":"采育镇","PINYIN":"Caiyu Zhen","CLASS":"AI","GNID":"110115104000","XZNAME":"","ORIG_FID":2212}},
{"type":"Feature","geometry":{"type":"Point","coordinates":[116.23571351261259,39.6540286604286]},"properties":{"NAME":"诸葛营村","PINYIN":"Zhugeyingcun","CLASS":"AK","GNID":"110115109215","XZNAME":"北臧村镇","ORIG_FID":2213}},
{"type":"Feature","geometry":{"type":"Point","coordinates":[116.08131790584423,39.654938109040486]},"properties":{"NAME":"望楚村","PINYIN":"Wangchucun","CLASS":"AK","GNID":"110111103211","XZNAME":"窦店镇","ORIG_FID":2215}},
{"type":"Feature","geometry":{"type":"Point","coordinates":[115.97860816621898,39.65562548665167]},"properties":{"NAME":"石楼镇","PINYIN":"Shilou Zhen","CLASS":"AI","GNID":"110111104000","XZNAME":"","ORIG_FID":2216}},
{"type":"Feature","geometry":{"type":"Point","coordinates":[115.99137796857329,39.65569714244755]},"properties":{"NAME":"坨头村","PINYIN":"Tuotoucun","CLASS":"AK","GNID":"110111104208","XZNAME":"石楼镇","ORIG_FID":2217}},
{"type":"Feature","geometry":{"type":"Point","coordinates":[115.94229322658582,39.65649633308158]},"properties":{"NAME":"大韩继村","PINYIN":"Dahanjicun","CLASS":"AK","GNID":"110111117000","XZNAME":"周口店镇(地区)","ORIG_FID":2219}},
{"type":"Feature","geometry":{"type":"Point","coordinates":[116.14919167109394,39.65653375134766]},"properties":{"NAME":"张谢村","PINYIN":"Zhangxiecun","CLASS":"AK","GNID":"110111116000","XZNAME":"良乡镇(地区)","ORIG_FID":2220}},
{"type":"Feature","geometry":{"type":"Point","coordinates":[115.73393399094044,39.65655019630985]},"properties":{"NAME":"东关上村","PINYIN":"Dongguanshangcun","CLASS":"AK","GNID":"110111110203","XZNAME":"张坊镇","ORIG_FID":2221}},
{"type":"Feature","geometry":{"type":"Point","coordinates":[115.77724190762518,39.656840697403695]},"properties":{"NAME":"五眼井","PINYIN":"Wuyanjing","CLASS":"BB","GNID":"110111000000","XZNAME":"","ORIG_FID":2222}},
{"type":"Feature","geometry":{"type":"Point","coordinates":[115.93300539659118,39.6572002074465]},"properties":{"NAME":"新街村","PINYIN":"Xinjiecun","CLASS":"AK","GNID":"110111117000","XZNAME":"周口店镇(地区)","ORIG_FID":2223}},
{"type":"Feature","geometry":{"type":"Point","coordinates":[116.3577495389729,39.65748496599959]},"properties":{"NAME":"西枣林村","PINYIN":"Xizaolincun","CLASS":"AK","GNID":"110115110221","XZNAME":"魏善庄镇","ORIG_FID":2225}},
{"type":"Feature","geometry":{"type":"Point","coordinates":[116.51812962794402,39.6582579801084]},"properties":{"NAME":"太平庄村","PINYIN":"Taipingzhuangcun","CLASS":"AK","GNID":"110115103226","XZNAME":"青云店镇","ORIG_FID":2226}},
{"type":"Feature","geometry":{"type":"Point","coordinates":[115.84303536395917,39.658891849078344]},"properties":{"NAME":"北港","PINYIN":"Beigang","CLASS":"BB","GNID":"110111000000","XZNAME":"","ORIG_FID":2227}},
{"type":"Feature","geometry":{"type":"Point","coordinates":[116.53209216232302,39.65915967002216]},"properties":{"NAME":"东鲍辛庄村","PINYIN":"Dongbaoxinzhuangcun","CLASS":"AK","GNID":"110115103229","XZNAME":"青云店镇","ORIG_FID":2228}},
{"type":"Feature","geometry":{"type":"Point","coordinates":[115.54119217829268,39.65927007371147]},"properties":{"NAME":"平峪村","PINYIN":"Pingyucun","CLASS":"AK","GNID":"110111111200","XZNAME":"十渡镇","ORIG_FID":2229}},
{"type":"Feature","geometry":{"type":"Point","coordinates":[116.72552627772232,39.659273930517806]},"properties":{"NAME":"枣林村","PINYIN":"Zaolincun","CLASS":"AK","GNID":"110112209216","XZNAME":"于家务回族乡","ORIG_FID":2230}},
{"type":"Feature","geometry":{"type":"Point","coordinates":[116.46116811015514,39.659542489139724]},"properties":{"NAME":"赵庄子村","PINYIN":"Zhaozhuangzicun","CLASS":"AK","GNID":"110115110214","XZNAME":"魏善庄镇","ORIG_FID":2231}},
{"type":"Feature","geometry":{"type":"Point","coordinates":[116.69326433106585,39.659865249990744]},"properties":{"NAME":"前甫村","PINYIN":"Qianfucun","CLASS":"AK","GNID":"110115104223","XZNAME":"采育镇","ORIG_FID":2233}},
{"type":"Feature","geometry":{"type":"Point","coordinates":[116.70196211858746,39.65994998422256]},"properties":{"NAME":"南刘庄村","PINYIN":"Nanliuzhuangcun","CLASS":"AK","GNID":"110112209219","XZNAME":"于家务回族乡","ORIG_FID":2234}},
{"type":"Feature","geometry":{"type":"Point","coordinates":[116.34995003209859,39.66036648355242]},"properties":{"NAME":"西庄村","PINYIN":"Xizhuangcun","CLASS":"AK","GNID":"110115113000","XZNAME":"黄村镇(地区)","ORIG_FID":2235}},
{"type":"Feature","geometry":{"type":"Point","coordinates":[115.8815923114743,39.66171611046692]},"properties":{"NAME":"拴马庄村","PINYIN":"Shuanmazhuangcun","CLASS":"AK","GNID":"110111117000","XZNAME":"周口店镇(地区)","ORIG_FID":2236}},
{"type":"Feature","geometry":{"type":"Point","coordinates":[115.9307217850341,39.66179554519256]},"properties":{"NAME":"辛庄村","PINYIN":"Xinzhuangcun","CLASS":"AK","GNID":"110111117000","XZNAME":"周口店镇(地区)","ORIG_FID":2237}},
{"type":"Feature","geometry":{"type":"Point","coordinates":[116.83442527685561,39.66182393314162]},"properties":{"NAME":"大务村","PINYIN":"Dawucun","CLASS":"AK","GNID":"110112117222","XZNAME":"永乐店镇","ORIG_FID":2238}},
{"type":"Feature","geometry":{"type":"Point","coordinates":[116.19525925124016,39.66212176319628]},"properties":{"NAME":"公议庄村","PINYIN":"Gongyizhuangcun","CLASS":"AK","GNID":"110111105238","XZNAME":"长阳镇","ORIG_FID":2239}},
{"type":"Feature","geometry":{"type":"Point","coordinates":[116.30033800200478,39.662288234082155]},"properties":{"NAME":"大臧村","PINYIN":"Dazangcun","CLASS":"AK","GNID":"110115109212","XZNAME":"北臧村镇","ORIG_FID":2240}},
{"type":"Feature","geometry":{"type":"Point","coordinates":[116.05875195949137,39.66263115104232]},"properties":{"NAME":"瓦窑头村","PINYIN":"Wayaotoucun","CLASS":"AK","GNID":"110111103206","XZNAME":"窦店镇","ORIG_FID":2241}},
{"type":"Feature","geometry":{"type":"Point","coordinates":[116.1077580640979,39.662998069138226]},"properties":{"NAME":"小高舍村","PINYIN":"Xiaogaoshecun","CLASS":"AK","GNID":"110111103216","XZNAME":"窦店镇","ORIG_FID":2242}},
{"type":"Feature","geometry":{"type":"Point","coordinates":[116.4189138832556,39.66302678095151]},"properties":{"NAME":"魏善庄村","PINYIN":"Weishanzhuangcun","CLASS":"AK","GNID":"110115110211","XZNAME":"魏善庄镇","ORIG_FID":2243}},
{"type":"Feature","geometry":{"type":"Point","coordinates":[115.78583139645083,39.66323130021081]},"properties":{"NAME":"滑尖","PINYIN":"Huajian","CLASS":"BB","GNID":"110111000000","XZNAME":"","ORIG_FID":2244}},
{"type":"Feature","geometry":{"type":"Point","coordinates":[116.02829119907781,39.663924393327314]},"properties":{"NAME":"夏村村","PINYIN":"Xiacuncun","CLASS":"AK","GNID":"110111104211","XZNAME":"石楼镇","ORIG_FID":2246}},
{"type":"Feature","geometry":{"type":"Point","coordinates":[116.60206842488992,39.66414161007759]},"properties":{"NAME":"车固营一村","PINYIN":"Cheguyingyicun","CLASS":"AK","GNID":"110115111227","XZNAME":"长子营镇","ORIG_FID":2247}},
{"type":"Feature","geometry":{"type":"Point","coordinates":[116.10200098298172,39.664243191989186]},"properties":{"NAME":"大高舍村","PINYIN":"Dagaoshecun","CLASS":"AK","GNID":"110111103217","XZNAME":"窦店镇","ORIG_FID":2248}},
{"type":"Feature","geometry":{"type":"Point","coordinates":[116.78547830799232,39.66430183620169]},"properties":{"NAME":"德仁务前街村","PINYIN":"Derenwuqianjiecun","CLASS":"AK","GNID":"110112117225","XZNAME":"永乐店镇","ORIG_FID":2249}},
{"type":"Feature","geometry":{"type":"Point","coordinates":[116.07801547073664,39.6646267625286]},"properties":{"NAME":"七里店村","PINYIN":"Qilidiancun","CLASS":"AK","GNID":"110111103210","XZNAME":"窦店镇","ORIG_FID":2250}},
{"type":"Feature","geometry":{"type":"Point","coordinates":[116.39565571756543,39.66468699190173]},"properties":{"NAME":"北研垡村","PINYIN":"Beiyanfacun","CLASS":"AK","GNID":"110115110209","XZNAME":"魏善庄镇","ORIG_FID":2251}},
{"type":"Feature","geometry":{"type":"Point","coordinates":[115.91013158844476,39.664772094834525]},"properties":{"NAME":"娄子水村","PINYIN":"Louzishuicun","CLASS":"AK","GNID":"110111117000","XZNAME":"周口店镇(地区)","ORIG_FID":2252}},
{"type":"Feature","geometry":{"type":"Point","coordinates":[116.51753394766183,39.66553169188619]},"properties":{"NAME":"小谷店村","PINYIN":"Xiaogudiancun","CLASS":"AK","GNID":"110115103224","XZNAME":"青云店镇","ORIG_FID":2253}},
{"type":"Feature","geometry":{"type":"Point","coordinates":[116.29063113484918,39.666483626201114]},"properties":{"NAME":"中臧村","PINYIN":"Zhongzangcun","CLASS":"AK","GNID":"110115109211","XZNAME":"北臧村镇","ORIG_FID":2254}},
{"type":"Feature","geometry":{"type":"Point","coordinates":[116.26334396468728,39.66697998912316]},"properties":{"NAME":"周庄子村","PINYIN":"Zhouzhuangzicun","CLASS":"AK","GNID":"110115109210","XZNAME":"北臧村镇","ORIG_FID":2256}},
{"type":"Feature","geometry":{"type":"Point","coordinates":[116.15501674595792,39.668221848806695]},"properties":{"NAME":"侯庄村","PINYIN":"Houzhuangcun","CLASS":"AK","GNID":"110111116000","XZNAME":"良乡镇(地区)","ORIG_FID":2257}},
{"type":"Feature","geometry":{"type":"Point","coordinates":[116.14421714693412,39.66837793854499]},"properties":{"NAME":"下禅坊村","PINYIN":"Xiachanfangcun","CLASS":"AK","GNID":"110111116000","XZNAME":"良乡镇(地区)","ORIG_FID":2258}},
{"type":"Feature","geometry":{"type":"Point","coordinates":[116.13119230761974,39.66850208568947]},"properties":{"NAME":"江村村","PINYIN":"Jiangcuncun","CLASS":"AK","GNID":"110111116000","XZNAME":"良乡镇(地区)","ORIG_FID":2259}},
{"type":"Feature","geometry":{"type":"Point","coordinates":[116.00461018641572,39.669068883496024]},"properties":{"NAME":"东瓜地村","PINYIN":"Dongguadicun","CLASS":"AK","GNID":"110111001204","XZNAME":"城关街道","ORIG_FID":2260}},
{"type":"Feature","geometry":{"type":"Point","coordinates":[116.4394829159057,39.67018028505161]},"properties":{"NAME":"王各庄村","PINYIN":"Wanggezhuangcun","CLASS":"AK","GNID":"110115110212","XZNAME":"魏善庄镇","ORIG_FID":2261}},
{"type":"Feature","geometry":{"type":"Point","coordinates":[116.55394198351917,39.670340306167965]},"properties":{"NAME":"西杭子村","PINYIN":"Xihangzicun","CLASS":"AK","GNID":"110115103223","XZNAME":"青云店镇","ORIG_FID":2262}},
{"type":"Feature","geometry":{"type":"Point","coordinates":[116.77875572758104,39.671007412229734]},"properties":{"NAME":"德仁务中街村","PINYIN":"Derenwuzhongjiecun","CLASS":"AK","GNID":"110112117226","XZNAME":"永乐店镇","ORIG_FID":2263}},
{"type":"Feature","geometry":{"type":"Point","coordinates":[116.23182188135873,39.67110165099115]},"properties":{"NAME":"西大营村","PINYIN":"Xidayingcun","CLASS":"AK","GNID":"110115109209","XZNAME":"北臧村镇","ORIG_FID":2264}},
{"type":"Feature","geometry":{"type":"Point","coordinates":[116.31628088912574,39.671350428968125]},"properties":{"NAME":"北臧村","PINYIN":"Beizangcun","CLASS":"AK","GNID":"110115109207","XZNAME":"北臧村镇","ORIG_FID":2265}},
{"type":"Feature","geometry":{"type":"Point","coordinates":[115.72343094606228,39.67143470879364]},"properties":{"NAME":"大北岭口儿","PINYIN":"Dabeilingkou'er","CLASS":"BB","GNID":"110111000000","XZNAME":"","ORIG_FID":2266}},
{"type":"Feature","geometry":{"type":"Point","coordinates":[115.79221137627526,39.67148993983436]},"properties":{"NAME":"下苇子铺","PINYIN":"Xiaweizipu","CLASS":"BB","GNID":"110111000000","XZNAME":"","ORIG_FID":2267}},
{"type":"Feature","geometry":{"type":"Point","coordinates":[116.34435983141915,39.671491428068165]},"properties":{"NAME":"狼各庄","PINYIN":"Langgezhuang","CLASS":"BB","GNID":"110115000000","XZNAME":"","ORIG_FID":2268}},
{"type":"Feature","geometry":{"type":"Point","coordinates":[116.59995040449415,39.671878385677864]},"properties":{"NAME":"潞城营一村","PINYIN":"Luchengyingyicun","CLASS":"AK","GNID":"110115111220","XZNAME":"长子营镇","ORIG_FID":2269}},
{"type":"Feature","geometry":{"type":"Point","coordinates":[115.59098647900508,39.6719904625118]},"properties":{"NAME":"马安村","PINYIN":"Ma'ancun","CLASS":"AK","GNID":"110111111209","XZNAME":"十渡镇","ORIG_FID":2270}},
{"type":"Feature","geometry":{"type":"Point","coordinates":[115.99248858275247,39.672078268266205]},"properties":{"NAME":"辛庄村","PINYIN":"Xinzhuangcun","CLASS":"AK","GNID":"110111001203","XZNAME":"城关街道","ORIG_FID":2271}},
{"type":"Feature","geometry":{"type":"Point","coordinates":[116.38297757374433,39.67211974150172]},"properties":{"NAME":"兴隆庄村","PINYIN":"Xinglongzhuangcun","CLASS":"AK","GNID":"110115110208","XZNAME":"魏善庄镇","ORIG_FID":2272}},
{"type":"Feature","geometry":{"type":"Point","coordinates":[116.04365115789705,39.672975700903564]},"properties":{"NAME":"苏村村","PINYIN":"Sucuncun","CLASS":"AK","GNID":"110111103207","XZNAME":"窦店镇","ORIG_FID":2274}},
{"type":"Feature","geometry":{"type":"Point","coordinates":[116.85248806657805,39.673076748271896]},"properties":{"NAME":"鲁城村","PINYIN":"Luchengcun","CLASS":"AK","GNID":"110112117221","XZNAME":"永乐店镇","ORIG_FID":2275}},
{"type":"Feature","geometry":{"type":"Point","coordinates":[116.82300331248423,39.674224338894604]},"properties":{"NAME":"小务村","PINYIN":"Xiaowucun","CLASS":"AK","GNID":"110112117215","XZNAME":"永乐店镇","ORIG_FID":2277}},
{"type":"Feature","geometry":{"type":"Point","coordinates":[116.18895357134328,39.674255517231856]},"properties":{"NAME":"赵庄村","PINYIN":"Zhaozhuangcun","CLASS":"AK","GNID":"110111105237","XZNAME":"长阳镇","ORIG_FID":2278}},
{"type":"Feature","geometry":{"type":"Point","coordinates":[116.24025771573233,39.67426782073327]},"properties":{"NAME":"桑马房村","PINYIN":"Sangmafangcun","CLASS":"AK","GNID":"110115109205","XZNAME":"北臧村镇","ORIG_FID":2279}},
{"type":"Feature","geometry":{"type":"Point","coordinates":[116.65326172334585,39.67428833424629]},"properties":{"NAME":"大黑垡村","PINYIN":"Daheifacun","CLASS":"AK","GNID":"110115104200","XZNAME":"采育镇","ORIG_FID":2280}},
{"type":"Feature","geometry":{"type":"Point","coordinates":[115.98367890024366,39.67434375937158]},"properties":{"NAME":"东坟村","PINYIN":"Dongfencun","CLASS":"AK","GNID":"110111001202","XZNAME":"城关街道","ORIG_FID":2281}},
{"type":"Feature","geometry":{"type":"Point","coordinates":[116.06365585105308,39.67460308127767]},"properties":{"NAME":"于庄村","PINYIN":"Yuzhuangcun","CLASS":"AK","GNID":"110111103208","XZNAME":"窦店镇","ORIG_FID":2282}},
{"type":"Feature","geometry":{"type":"Point","coordinates":[116.52353223994115,39.67483786413153]},"properties":{"NAME":"东店村","PINYIN":"Dongdiancun","CLASS":"AK","GNID":"110115103222","XZNAME":"青云店镇","ORIG_FID":2283}},
{"type":"Feature","geometry":{"type":"Point","coordinates":[116.13436776009716,39.675463994625744]},"properties":{"NAME":"南庄子村","PINYIN":"Nanzhuangzicun","CLASS":"AK","GNID":"110111116000","XZNAME":"良乡镇(地区)","ORIG_FID":2284}},
{"type":"Feature","geometry":{"type":"Point","coordinates":[116.15862485552547,39.67596836514424]},"properties":{"NAME":"西石羊村","PINYIN":"Xishiyangcun","CLASS":"AK","GNID":"110111116000","XZNAME":"良乡镇(地区)","ORIG_FID":2285}},
{"type":"Feature","geometry":{"type":"Point","coordinates":[115.9473063516232,39.67627096402966]},"properties":{"NAME":"周口村","PINYIN":"Zhoukoucun","CLASS":"AK","GNID":"110111117000","XZNAME":"周口店镇(地区)","ORIG_FID":2286}},
{"type":"Feature","geometry":{"type":"Point","coordinates":[115.96996217343141,39.67653248359478]},"properties":{"NAME":"顾册村","PINYIN":"Gucecun","CLASS":"AK","GNID":"110111001200","XZNAME":"城关街道","ORIG_FID":2287}},
{"type":"Feature","geometry":{"type":"Point","coordinates":[116.19307851819944,39.67658753584705]},"properties":{"NAME":"佛满村","PINYIN":"Fomancun","CLASS":"AK","GNID":"110111105236","XZNAME":"长阳镇","ORIG_FID":2288}},
{"type":"Feature","geometry":{"type":"Point","coordinates":[116.1660358834158,39.6780984060805]},"properties":{"NAME":"东石羊村","PINYIN":"Dongshiyangcun","CLASS":"AK","GNID":"110111116000","XZNAME":"良乡镇(地区)","ORIG_FID":2290}},
{"type":"Feature","geometry":{"type":"Point","coordinates":[116.72831572932655,39.678145582472716]},"properties":{"NAME":"渠头村","PINYIN":"Qutoucun","CLASS":"AK","GNID":"110112209209","XZNAME":"于家务回族乡","ORIG_FID":2291}},
{"type":"Feature","geometry":{"type":"Point","coordinates":[116.80901456724321,39.67844000952515]},"properties":{"NAME":"东河村","PINYIN":"Donghecun","CLASS":"AK","GNID":"110112117223","XZNAME":"永乐店镇","ORIG_FID":2292}},
{"type":"Feature","geometry":{"type":"Point","coordinates":[116.47803641445037,39.6797817903372]},"properties":{"NAME":"沙子营村","PINYIN":"Shaziyingcun","CLASS":"AK","GNID":"110115103212","XZNAME":"青云店镇","ORIG_FID":2294}},
{"type":"Feature","geometry":{"type":"Point","coordinates":[115.63131010876833,39.679957852330546]},"properties":{"NAME":"大黄岩子","PINYIN":"Dahuangyanzi","CLASS":"BB","GNID":"110111000000","XZNAME":"","ORIG_FID":2295}},
{"type":"Feature","geometry":{"type":"Point","coordinates":[116.0924281757422,39.680100314367465]},"properties":{"NAME":"小十三里村","PINYIN":"Xiaoshisanlicun","CLASS":"AK","GNID":"110111101217","XZNAME":"阎村镇","ORIG_FID":2296}},
{"type":"Feature","geometry":{"type":"Point","coordinates":[116.5994585870553,39.680104219196195]},"properties":{"NAME":"河津营村","PINYIN":"Hejinyingcun","CLASS":"AK","GNID":"110115111213","XZNAME":"长子营镇","ORIG_FID":2297}},
{"type":"Feature","geometry":{"type":"Point","coordinates":[116.6706743575657,39.680317848101154]},"properties":{"NAME":"前伏村","PINYIN":"Qianfucun","CLASS":"AK","GNID":"110112209223","XZNAME":"于家务回族乡","ORIG_FID":2298}},
{"type":"Feature","geometry":{"type":"Point","coordinates":[116.36301010114089,39.68036642547484]},"properties":{"NAME":"前大营村","PINYIN":"Qiandayingcun","CLASS":"AK","GNID":"110115113000","XZNAME":"黄村镇(地区)","ORIG_FID":2299}},
{"type":"Feature","geometry":{"type":"Point","coordinates":[116.05901920594613,39.680424989896416]},"properties":{"NAME":"下坡店村","PINYIN":"Xiapodiancun","CLASS":"AK","GNID":"110111103209","XZNAME":"窦店镇","ORIG_FID":2300}},
{"type":"Feature","geometry":{"type":"Point","coordinates":[116.8468401824821,39.68045404721066]},"properties":{"NAME":"马合店村","PINYIN":"Mahediancun","CLASS":"AK","GNID":"110112117220","XZNAME":"永乐店镇","ORIG_FID":2301}},
{"type":"Feature","geometry":{"type":"Point","coordinates":[116.01289386972361,39.680496202296304]},"properties":{"NAME":"田各庄村","PINYIN":"Tiangezhuangcun","CLASS":"AK","GNID":"110111001205","XZNAME":"城关街道","ORIG_FID":2302}},
{"type":"Feature","geometry":{"type":"Point","coordinates":[115.94563082950812,39.68062118064363]},"properties":{"NAME":"周口店镇(地区)","PINYIN":"Zhoukoudian Zhen(Diqu)","CLASS":"AI","GNID":"110111117000","XZNAME":"","ORIG_FID":2303}},
{"type":"Feature","geometry":{"type":"Point","coordinates":[115.98116558149447,39.68115206107284]},"properties":{"NAME":"北市村","PINYIN":"Beishicun","CLASS":"AK","GNID":"110111001201","XZNAME":"城关街道","ORIG_FID":2304}},
{"type":"Feature","geometry":{"type":"Point","coordinates":[116.13107528529461,39.68240951183697]},"properties":{"NAME":"邢家坞村","PINYIN":"Xingjiawucun","CLASS":"AK","GNID":"110111116000","XZNAME":"良乡镇(地区)","ORIG_FID":2305}},
{"type":"Feature","geometry":{"type":"Point","coordinates":[115.72354427864117,39.682674281681955]},"properties":{"NAME":"佛子岭","PINYIN":"Foziling","CLASS":"BB","GNID":"110111000000","XZNAME":"","ORIG_FID":2306}},
{"type":"Feature","geometry":{"type":"Point","coordinates":[116.16005063093787,39.68295440462742]},"properties":{"NAME":"后石羊村","PINYIN":"Houshiyangcun","CLASS":"AK","GNID":"110111116000","XZNAME":"良乡镇(地区)","ORIG_FID":2307}},
{"type":"Feature","geometry":{"type":"Point","coordinates":[116.11866216895491,39.68345595921124]},"properties":{"NAME":"刘丈村","PINYIN":"Liuzhangcun","CLASS":"AK","GNID":"110111116000","XZNAME":"良乡镇(地区)","ORIG_FID":2308}},
{"type":"Feature","geometry":{"type":"Point","coordinates":[115.95278641326954,39.683584058142785]},"properties":{"NAME":"云峰寺村","PINYIN":"Yunfengsicun","CLASS":"AK","GNID":"110111117000","XZNAME":"周口店镇(地区)","ORIG_FID":2309}},
{"type":"Feature","geometry":{"type":"Point","coordinates":[116.38286238915367,39.683668504840334]},"properties":{"NAME":"吴庄村","PINYIN":"Wuzhuangcun","CLASS":"AK","GNID":"110115110201","XZNAME":"魏善庄镇","ORIG_FID":2310}},
{"type":"Feature","geometry":{"type":"Point","coordinates":[116.84926808317671,39.6839255260125]},"properties":{"NAME":"后营村","PINYIN":"Houyingcun","CLASS":"AK","GNID":"110112117219","XZNAME":"永乐店镇","ORIG_FID":2311}},
{"type":"Feature","geometry":{"type":"Point","coordinates":[116.43631199481494,39.68404431608993]},"properties":{"NAME":"查家马房村","PINYIN":"Zhajiamafangcun","CLASS":"AK","GNID":"110115110206","XZNAME":"魏善庄镇","ORIG_FID":2312}},
{"type":"Feature","geometry":{"type":"Point","coordinates":[116.46187612694814,39.684534374004436]},"properties":{"NAME":"高庄村","PINYIN":"Gaozhuangcun","CLASS":"AK","GNID":"110115103248","XZNAME":"青云店镇","ORIG_FID":2313}},
{"type":"Feature","geometry":{"type":"Point","coordinates":[115.68952565433679,39.68459976239683]},"properties":{"NAME":"天井","PINYIN":"Tianjing","CLASS":"BB","GNID":"110111000000","XZNAME":"","ORIG_FID":2314}},
{"type":"Feature","geometry":{"type":"Point","coordinates":[115.93885042526193,39.68496039126369]},"properties":{"NAME":"周口店村","PINYIN":"Zhoukoudiancun","CLASS":"AK","GNID":"110111117000","XZNAME":"周口店镇(地区)","ORIG_FID":2316}},
{"type":"Feature","geometry":{"type":"Point","coordinates":[116.49700681855529,39.68503867371709]},"properties":{"NAME":"青云店镇","PINYIN":"Qingyundian Zhen","CLASS":"AI","GNID":"110115103000","XZNAME":"","ORIG_FID":2317}},
{"type":"Feature","geometry":{"type":"Point","coordinates":[116.59134204654359,39.685377850484564]},"properties":{"NAME":"长子营镇","PINYIN":"Changziying Zhen","CLASS":"AI","GNID":"110115111000","XZNAME":"","ORIG_FID":2318}},
{"type":"Feature","geometry":{"type":"Point","coordinates":[116.29702293725803,39.6853983048823]},"properties":{"NAME":"北臧村镇","PINYIN":"Beizangcun Zhen","CLASS":"AI","GNID":"110115109000","XZNAME":"","ORIG_FID":2319}},
{"type":"Feature","geometry":{"type":"Point","coordinates":[116.89602012236499,39.68560528999454]},"properties":{"NAME":"梁家务村","PINYIN":"Liangjiawucun","CLASS":"AK","GNID":"110112106258","XZNAME":"漷县镇","ORIG_FID":2320}},
{"type":"Feature","geometry":{"type":"Point","coordinates":[116.63559004228169,39.68638568847878]},"properties":{"NAME":"小黑垡村","PINYIN":"Xiaoheifacun","CLASS":"AK","GNID":"110115111215","XZNAME":"长子营镇","ORIG_FID":2321}},
{"type":"Feature","geometry":{"type":"Point","coordinates":[116.20755971126901,39.68653170667933]},"properties":{"NAME":"夏场村","PINYIN":"Xiachangcun","CLASS":"AK","GNID":"110111105235","XZNAME":"长阳镇","ORIG_FID":2322}},
{"type":"Feature","geometry":{"type":"Point","coordinates":[116.70264461008898,39.68665735123001]},"properties":{"NAME":"东垡村","PINYIN":"Dongfacun","CLASS":"AK","GNID":"110112209220","XZNAME":"于家务回族乡","ORIG_FID":2323}},
{"type":"Feature","geometry":{"type":"Point","coordinates":[116.58230232101128,39.687155602347346]},"properties":{"NAME":"沁水营村","PINYIN":"Qinshuiyingcun","CLASS":"AK","GNID":"110115111210","XZNAME":"长子营镇","ORIG_FID":2324}},
{"type":"Feature","geometry":{"type":"Point","coordinates":[116.36985413031104,39.68740292848745]},"properties":{"NAME":"后大营村","PINYIN":"Houdayingcun","CLASS":"AK","GNID":"110115110200","XZNAME":"魏善庄镇","ORIG_FID":2325}},
{"type":"Feature","geometry":{"type":"Point","coordinates":[115.58777041201114,39.68743411913201]},"properties":{"NAME":"卧龙村","PINYIN":"Wolongcun","CLASS":"AK","GNID":"110111111210","XZNAME":"十渡镇","ORIG_FID":2326}},
{"type":"Feature","geometry":{"type":"Point","coordinates":[116.40874606401766,39.68756445573574]},"properties":{"NAME":"东芦垡村","PINYIN":"Donglufacun","CLASS":"AK","GNID":"110115110203","XZNAME":"魏善庄镇","ORIG_FID":2327}},
{"type":"Feature","geometry":{"type":"Point","coordinates":[116.01224851165173,39.68803390216067]},"properties":{"NAME":"瓜市村","PINYIN":"Guashicun","CLASS":"AK","GNID":"110111001206","XZNAME":"城关街道","ORIG_FID":2328}},
{"type":"Feature","geometry":{"type":"Point","coordinates":[116.55520098571776,39.68809589975085]},"properties":{"NAME":"解州营村","PINYIN":"Xiezhouyingcun","CLASS":"AK","GNID":"110115103210","XZNAME":"青云店镇","ORIG_FID":2329}},
{"type":"Feature","geometry":{"type":"Point","coordinates":[116.54465281560928,39.68829512182559]},"properties":{"NAME":"霍州营村","PINYIN":"Huozhouyingcun","CLASS":"AK","GNID":"110115103208","XZNAME":"青云店镇","ORIG_FID":2330}},
{"type":"Feature","geometry":{"type":"Point","coordinates":[116.69313361568113,39.68841603431237]},"properties":{"NAME":"西垡村","PINYIN":"Xifacun","CLASS":"AK","GNID":"110112209221","XZNAME":"于家务回族乡","ORIG_FID":2331}},
{"type":"Feature","geometry":{"type":"Point","coordinates":[116.10484663322941,39.68878435275061]},"properties":{"NAME":"大十三里村","PINYIN":"Dashisanlicun","CLASS":"AK","GNID":"110111101216","XZNAME":"阎村镇","ORIG_FID":2332}},
{"type":"Feature","geometry":{"type":"Point","coordinates":[115.7045983441113,39.68892960191335]},"properties":{"NAME":"榆树窑","PINYIN":"Yushuyao","CLASS":"BB","GNID":"110111000000","XZNAME":"","ORIG_FID":2333}},
{"type":"Feature","geometry":{"type":"Point","coordinates":[116.31304983117121,39.6889579009148]},"properties":{"NAME":"韩园子村","PINYIN":"Hanyuanzicun","CLASS":"AK","GNID":"110115113000","XZNAME":"黄村镇(地区)","ORIG_FID":2334}},
{"type":"Feature","geometry":{"type":"Point","coordinates":[115.85467694913025,39.689015809944465]},"properties":{"NAME":"黄山店村","PINYIN":"Huangshandiancun","CLASS":"AK","GNID":"110111117000","XZNAME":"周口店镇(地区)","ORIG_FID":2335}},
{"type":"Feature","geometry":{"type":"Point","coordinates":[116.16697632220271,39.689996419852676]},"properties":{"NAME":"南刘庄村","PINYIN":"Nanliuzhuangcun","CLASS":"AK","GNID":"110111116000","XZNAME":"良乡镇(地区)","ORIG_FID":2336}},
{"type":"Feature","geometry":{"type":"Point","coordinates":[116.5358806733939,39.69006734569973]},"properties":{"NAME":"石州营村","PINYIN":"Shizhouyingcun","CLASS":"AK","GNID":"110115103205","XZNAME":"青云店镇","ORIG_FID":2337}},
{"type":"Feature","geometry":{"type":"Point","coordinates":[116.25426082603201,39.69100740624372]},"properties":{"NAME":"马村","PINYIN":"Macun","CLASS":"AK","GNID":"110115109201","XZNAME":"北臧村镇","ORIG_FID":2339}},
{"type":"Feature","geometry":{"type":"Point","coordinates":[116.10045231438176,39.69114835769956]},"properties":{"NAME":"后十三里村","PINYIN":"Houshisanlicun","CLASS":"AK","GNID":"110111101218","XZNAME":"阎村镇","ORIG_FID":2340}},
{"type":"Feature","geometry":{"type":"Point","coordinates":[116.81887865017785,39.691921813926]},"properties":{"NAME":"坚村村","PINYIN":"Jiancuncun","CLASS":"AK","GNID":"110112117217","XZNAME":"永乐店镇","ORIG_FID":2342}},
{"type":"Feature","geometry":{"type":"Point","coordinates":[116.5682028265065,39.69210395839191]},"properties":{"NAME":"留民营村","PINYIN":"Liuminyingcun","CLASS":"AK","GNID":"110115111204","XZNAME":"长子营镇","ORIG_FID":2343}},
{"type":"Feature","geometry":{"type":"Point","coordinates":[115.89615019875797,39.69293573669726]},"properties":{"NAME":"黄院村","PINYIN":"Huangyuancun","CLASS":"AK","GNID":"110111117000","XZNAME":"周口店镇(地区)","ORIG_FID":2344}},
{"type":"Feature","geometry":{"type":"Point","coordinates":[116.62637037117602,39.69307945268295]},"properties":{"NAME":"北泗上村","PINYIN":"Beisishangcun","CLASS":"AK","GNID":"110115111208","XZNAME":"长子营镇","ORIG_FID":2345}},
{"type":"Feature","geometry":{"type":"Point","coordinates":[116.55827746878649,39.693326371517216]},"properties":{"NAME":"垡上营村","PINYIN":"Fashangyingcun","CLASS":"AK","GNID":"110115103209","XZNAME":"青云店镇","ORIG_FID":2346}},
{"type":"Feature","geometry":{"type":"Point","coordinates":[116.15003610644936,39.69362181011223]},"properties":{"NAME":"小营村","PINYIN":"Xiaoyingcun","CLASS":"AK","GNID":"110111116000","XZNAME":"良乡镇(地区)","ORIG_FID":2347}},
{"type":"Feature","geometry":{"type":"Point","coordinates":[116.65152418903779,39.693741998825345]},"properties":{"NAME":"神驹村","PINYIN":"Shenjucun","CLASS":"AK","GNID":"110112109249","XZNAME":"马驹桥镇","ORIG_FID":2348}},
{"type":"Feature","geometry":{"type":"Point","coordinates":[116.54693209746391,39.69390977556221]},"properties":{"NAME":"沙堆营村","PINYIN":"Shaduiyingcun","CLASS":"AK","GNID":"110115103207","XZNAME":"青云店镇","ORIG_FID":2349}},
{"type":"Feature","geometry":{"type":"Point","coordinates":[115.82606789067349,39.69403824793601]},"properties":{"NAME":"涞沥水村","PINYIN":"Lailishuicun","CLASS":"AK","GNID":"110111117000","XZNAME":"周口店镇(地区)","ORIG_FID":2350}},
{"type":"Feature","geometry":{"type":"Point","coordinates":[116.30058443252716,39.6954638832356]},"properties":{"NAME":"埝坛村","PINYIN":"Niantancun","CLASS":"AK","GNID":"110115113000","XZNAME":"黄村镇(地区)","ORIG_FID":2351}},
{"type":"Feature","geometry":{"type":"Point","coordinates":[116.4458021945459,39.6957158958597]},"properties":{"NAME":"小张本庄村","PINYIN":"Xiaozhangbenzhuangcun","CLASS":"AK","GNID":"110115103241","XZNAME":"青云店镇","ORIG_FID":2352}},
{"type":"Feature","geometry":{"type":"Point","coordinates":[116.27312369234554,39.695772449862424]},"properties":{"NAME":"新立村","PINYIN":"Xinlicun","CLASS":"AK","GNID":"110115109202","XZNAME":"北臧村镇","ORIG_FID":2353}},
{"type":"Feature","geometry":{"type":"Point","coordinates":[115.98224253122072,39.6965404327351]},"properties":{"NAME":"南关村","PINYIN":"Nanguancun","CLASS":"AK","GNID":"110111001219","XZNAME":"城关街道","ORIG_FID":2354}},
{"type":"Feature","geometry":{"type":"Point","coordinates":[116.52846516675095,39.69659818389664]},"properties":{"NAME":"大迴城村","PINYIN":"Dahuichengcun","CLASS":"AK","GNID":"110115103203","XZNAME":"青云店镇","ORIG_FID":2355}},
{"type":"Feature","geometry":{"type":"Point","coordinates":[116.75837993356254,39.69682181059239]},"properties":{"NAME":"南堤寺东村","PINYIN":"Nandisidongcun","CLASS":"AK","GNID":"110112117213","XZNAME":"永乐店镇","ORIG_FID":2356}},
{"type":"Feature","geometry":{"type":"Point","coordinates":[116.79699817602197,39.697702053601176]},"properties":{"NAME":"大羊村","PINYIN":"Dayangcun","CLASS":"AK","GNID":"110112117211","XZNAME":"永乐店镇","ORIG_FID":2357}},
{"type":"Feature","geometry":{"type":"Point","coordinates":[115.60295646605331,39.6982578526993]},"properties":{"NAME":"南台子","PINYIN":"Nantaizi","CLASS":"BB","GNID":"110111000000","XZNAME":"","ORIG_FID":2359}},
{"type":"Feature","geometry":{"type":"Point","coordinates":[116.88445892105538,39.69833822325617]},"properties":{"NAME":"穆家坟村","PINYIN":"Mujiafencun","CLASS":"AK","GNID":"110112106255","XZNAME":"漷县镇","ORIG_FID":2360}},
{"type":"Feature","geometry":{"type":"Point","coordinates":[115.7294416203372,39.699012350364264]},"properties":{"NAME":"后石堂","PINYIN":"Houshitang","CLASS":"BB","GNID":"110111000000","XZNAME":"","ORIG_FID":2361}},
{"type":"Feature","geometry":{"type":"Point","coordinates":[116.72640333493365,39.69914592530275]},"properties":{"NAME":"王各庄村","PINYIN":"Wanggezhuangcun","CLASS":"AK","GNID":"110112209212","XZNAME":"于家务回族乡","ORIG_FID":2362}},
{"type":"Feature","geometry":{"type":"Point","coordinates":[115.57133211118897,39.699755721611844]},"properties":{"NAME":"两峪口","PINYIN":"Liangyukou","CLASS":"BB","GNID":"110111000000","XZNAME":"","ORIG_FID":2363}},
{"type":"Feature","geometry":{"type":"Point","coordinates":[116.17976033023429,39.69984821905906]},"properties":{"NAME":"梨村村","PINYIN":"Licuncun","CLASS":"AK","GNID":"110111011213","XZNAME":"拱辰街道","ORIG_FID":2364}},
{"type":"Feature","geometry":{"type":"Point","coordinates":[116.39988605099096,39.70008375677132]},"properties":{"NAME":"薄村","PINYIN":"Baocun","CLASS":"AK","GNID":"110115113000","XZNAME":"黄村镇(地区)","ORIG_FID":2365}},
{"type":"Feature","geometry":{"type":"Point","coordinates":[116.37242665211436,39.70022782857221]},"properties":{"NAME":"桂村","PINYIN":"Guicun","CLASS":"AK","GNID":"110115113000","XZNAME":"黄村镇(地区)","ORIG_FID":2366}},
{"type":"Feature","geometry":{"type":"Point","coordinates":[116.05765298678868,39.70067460343581]},"properties":{"NAME":"开古庄村","PINYIN":"Kaiguzhuangcun","CLASS":"AK","GNID":"110111101213","XZNAME":"阎村镇","ORIG_FID":2367}},
{"type":"Feature","geometry":{"type":"Point","coordinates":[116.32180316456515,39.70071814274734]},"properties":{"NAME":"天宫院街道","PINYIN":"Tiangongyuan Jiedao","CLASS":"AH","GNID":"110115010000","XZNAME":"","ORIG_FID":2368}},
{"type":"Feature","geometry":{"type":"Point","coordinates":[115.97732559473975,39.700789845058985]},"properties":{"NAME":"南街村","PINYIN":"Nanjiecun","CLASS":"AK","GNID":"110111001218","XZNAME":"城关街道","ORIG_FID":2369}},
{"type":"Feature","geometry":{"type":"Point","coordinates":[116.1188843722233,39.70086778425035]},"properties":{"NAME":"肖庄村","PINYIN":"Xiaozhuangcun","CLASS":"AK","GNID":"110111101219","XZNAME":"阎村镇","ORIG_FID":2370}},
{"type":"Feature","geometry":{"type":"Point","coordinates":[116.34943982472011,39.70089239316375]},"properties":{"NAME":"王立庄村","PINYIN":"Wanglizhuangcun","CLASS":"AK","GNID":"110115113000","XZNAME":"黄村镇(地区)","ORIG_FID":2371}},
{"type":"Feature","geometry":{"type":"Point","coordinates":[116.50848096889665,39.70117579175057]},"properties":{"NAME":"老观里村","PINYIN":"Laoguanlicun","CLASS":"AK","GNID":"110115103200","XZNAME":"青云店镇","ORIG_FID":2372}},
{"type":"Feature","geometry":{"type":"Point","coordinates":[116.62865460001028,39.70174226765169]},"properties":{"NAME":"北辛庄村","PINYIN":"Beixinzhuangcun","CLASS":"AK","GNID":"110115111203","XZNAME":"长子营镇","ORIG_FID":2373}},
{"type":"Feature","geometry":{"type":"Point","coordinates":[115.9959119644293,39.70182779718101]},"properties":{"NAME":"饶乐府村","PINYIN":"Raolefucun","CLASS":"AK","GNID":"110111001208","XZNAME":"城关街道","ORIG_FID":2374}},
{"type":"Feature","geometry":{"type":"Point","coordinates":[116.43506341417331,39.70236567822046]},"properties":{"NAME":"大张本庄村","PINYIN":"Dazhangbenzhuangcun","CLASS":"AK","GNID":"110115103240","XZNAME":"青云店镇","ORIG_FID":2376}},
{"type":"Feature","geometry":{"type":"Point","coordinates":[116.20933008906891,39.70275579029909]},"properties":{"NAME":"葫芦垡村","PINYIN":"Hulufacun","CLASS":"AK","GNID":"110111105234","XZNAME":"长阳镇","ORIG_FID":2378}},
{"type":"Feature","geometry":{"type":"Point","coordinates":[115.88555819121163,39.70331957021962]},"properties":{"NAME":"龙宝峪村","PINYIN":"Longbaoyucun","CLASS":"AK","GNID":"110111117000","XZNAME":"周口店镇(地区)","ORIG_FID":2379}},
{"type":"Feature","geometry":{"type":"Point","coordinates":[116.14639815717561,39.70333201443755]},"properties":{"NAME":"良乡镇(地区)","PINYIN":"Liangxiang Zhen(Diqu)","CLASS":"AI","GNID":"110111116000","XZNAME":"","ORIG_FID":2380}},
{"type":"Feature","geometry":{"type":"Point","coordinates":[116.07546461552576,39.703403204644786]},"properties":{"NAME":"南梨园村","PINYIN":"Nanliyuancun","CLASS":"AK","GNID":"110111101214","XZNAME":"阎村镇","ORIG_FID":2381}},
{"type":"Feature","geometry":{"type":"Point","coordinates":[116.01519227283394,39.703868989093934]},"properties":{"NAME":"马各庄村","PINYIN":"Magezhuangcun","CLASS":"AK","GNID":"110111001207","XZNAME":"城关街道","ORIG_FID":2382}},
{"type":"Feature","geometry":{"type":"Point","coordinates":[115.84544449989144,39.70415632305517]},"properties":{"NAME":"黄元寺村","PINYIN":"Huangyuansicun","CLASS":"AK","GNID":"110111117000","XZNAME":"周口店镇(地区)","ORIG_FID":2383}},
{"type":"Feature","geometry":{"type":"Point","coordinates":[116.66892047098415,39.70431820519567]},"properties":{"NAME":"柏福村","PINYIN":"Baifucun","CLASS":"AK","GNID":"110112109250","XZNAME":"马驹桥镇","ORIG_FID":2385}},
{"type":"Feature","geometry":{"type":"Point","coordinates":[116.49494007450411,39.70448158631142]},"properties":{"NAME":"中大屯村","PINYIN":"Zhongdatuncun","CLASS":"AK","GNID":"110115103245","XZNAME":"青云店镇","ORIG_FID":2386}},
{"type":"Feature","geometry":{"type":"Point","coordinates":[115.96806503511785,39.704522345963156]},"properties":{"NAME":"西街村","PINYIN":"Xijiecun","CLASS":"AK","GNID":"110111001220","XZNAME":"城关街道","ORIG_FID":2387}},
{"type":"Feature","geometry":{"type":"Point","coordinates":[115.94402325834037,39.7045378218813]},"properties":{"NAME":"官地村","PINYIN":"Guandicun","CLASS":"AK","GNID":"110111117000","XZNAME":"周口店镇(地区)","ORIG_FID":2388}},
{"type":"Feature","geometry":{"type":"Point","coordinates":[116.13924566032571,39.70456046766948]},"properties":{"NAME":"黑古台村","PINYIN":"Heigutaicun","CLASS":"AK","GNID":"110111116000","XZNAME":"良乡镇(地区)","ORIG_FID":2389}},
{"type":"Feature","geometry":{"type":"Point","coordinates":[116.37486419268649,39.704716317378356]},"properties":{"NAME":"李村","PINYIN":"Licun","CLASS":"AK","GNID":"110115113000","XZNAME":"黄村镇(地区)","ORIG_FID":2390}},
{"type":"Feature","geometry":{"type":"Point","coordinates":[116.24270780405736,39.70471811964842]},"properties":{"NAME":"六合庄村","PINYIN":"Liuhezhuangcun","CLASS":"AK","GNID":"110115109200","XZNAME":"北臧村镇","ORIG_FID":2391}},
{"type":"Feature","geometry":{"type":"Point","coordinates":[116.00739031998128,39.70477173859078]},"properties":{"NAME":"城关街道","PINYIN":"Chengguan Jiedao","CLASS":"AH","GNID":"110111001000","XZNAME":"","ORIG_FID":2392}},
{"type":"Feature","geometry":{"type":"Point","coordinates":[115.92925836806967,39.704891075111085]},"properties":{"NAME":"山口村","PINYIN":"Shankoucun","CLASS":"AK","GNID":"110111117000","XZNAME":"周口店镇(地区)","ORIG_FID":2393}},
{"type":"Feature","geometry":{"type":"Point","coordinates":[115.76362242777046,39.70495386887043]},"properties":{"NAME":"三流水村","PINYIN":"Sanliushuicun","CLASS":"AK","GNID":"110111208209","XZNAME":"霞云岭乡","ORIG_FID":2394}},
{"type":"Feature","geometry":{"type":"Point","coordinates":[116.40529644836087,39.70503902547797]},"properties":{"NAME":"侯村","PINYIN":"Houcun","CLASS":"AK","GNID":"110115113000","XZNAME":"黄村镇(地区)","ORIG_FID":2395}},
{"type":"Feature","geometry":{"type":"Point","coordinates":[116.15018831769368,39.705055409443446]},"properties":{"NAME":"鲁村村","PINYIN":"Lucuncun","CLASS":"AK","GNID":"110111116000","XZNAME":"良乡镇(地区)","ORIG_FID":2396}},
{"type":"Feature","geometry":{"type":"Point","coordinates":[116.00767904419604,39.7051242489722]},"properties":{"NAME":"后朱各庄村","PINYIN":"Houzhugezhuangcun","CLASS":"AK","GNID":"110111001213","XZNAME":"城关街道","ORIG_FID":2397}},
{"type":"Feature","geometry":{"type":"Point","coordinates":[116.81352390598474,39.705175662905035]},"properties":{"NAME":"孔庄村","PINYIN":"Kongzhuangcun","CLASS":"AK","GNID":"110112117210","XZNAME":"永乐店镇","ORIG_FID":2398}},
{"type":"Feature","geometry":{"type":"Point","coordinates":[116.78026994488255,39.70521868202913]},"properties":{"NAME":"永乐店二村","PINYIN":"Yongledian'ercun","CLASS":"AK","GNID":"110112117202","XZNAME":"永乐店镇","ORIG_FID":2399}},
{"type":"Feature","geometry":{"type":"Point","coordinates":[116.39041423926949,39.70549244626547]},"properties":{"NAME":"孙村","PINYIN":"Suncun","CLASS":"AK","GNID":"110115113000","XZNAME":"黄村镇(地区)","ORIG_FID":2400}},
{"type":"Feature","geometry":{"type":"Point","coordinates":[116.00747323373334,39.70573556349564]},"properties":{"NAME":"前朱各庄村","PINYIN":"Qianzhugezhuangcun","CLASS":"AK","GNID":"110111001212","XZNAME":"城关街道","ORIG_FID":2401}},
{"type":"Feature","geometry":{"type":"Point","coordinates":[115.97687141739564,39.70576986738604]},"properties":{"NAME":"北关村","PINYIN":"Beiguancun","CLASS":"AK","GNID":"110111001221","XZNAME":"城关街道","ORIG_FID":2402}},
{"type":"Feature","geometry":{"type":"Point","coordinates":[116.5796457169256,39.705856555830366]},"properties":{"NAME":"朱脑村","PINYIN":"Zhunaocun","CLASS":"AK","GNID":"110115111201","XZNAME":"长子营镇","ORIG_FID":2403}},